{
  "type": "FeatureCollection",
  "features": [
    {
      "type": "Feature",
      "geometry": {
        "type": "Point",
        "coordinates": [28.7471, -18.92]
      },
      "properties": {
        "name": "Stolsli",
        "realm_idx": 1,
        "order": "The Order of Giants",
        "resources": ["Stone", "Coal"]
      }
    },
    {
      "type": "Feature",
      "geometry": {
        "type": "Point",
        "coordinates": [114.0133, 0.5246]
      },
      "properties": {
        "name": "Ilgzhijajilg",
        "realm_idx": 2,
        "order": "The Order of Perfection",
        "resources": ["Coal"]
      }
    },
    {
      "type": "Feature",
      "geometry": {
        "type": "Point",
        "coordinates": [-107.4801, 16.6004]
      },
      "properties": {
        "name": "Hetokamohuti",
        "realm_idx": 3,
        "order": "The Order of Rage",
        "resources": ["Wood", "Stone", "Copper"]
      }
    },
    {
      "type": "Feature",
      "geometry": {
        "type": "Point",
        "coordinates": [-54.367, -33.3106]
      },
      "properties": {
        "name": "Egonal",
        "realm_idx": 4,
        "order": "The Order of the Fox",
        "resources": ["Copper", "Wood", "Ironwood", "Obsidian", "Coal", "Stone"]
      }
    },
    {
      "type": "Feature",
      "geometry": {
        "type": "Point",
        "coordinates": [-92.2801, -54.5996]
      },
      "properties": {
        "name": "\u2018oak Leukue",
        "realm_idx": 5,
        "order": "The Order of the Twins",
        "resources": ["Gold"]
      }
    },
    {
      "type": "Feature",
      "geometry": {
        "type": "Point",
        "coordinates": [-45.5137, 51.2713]
      },
      "properties": {
        "name": "Noykkuynoyk",
        "realm_idx": 6,
        "order": "The Order of Fury",
        "resources": ["Copper", "Coal", "Wood"]
      }
    },
    {
      "type": "Feature",
      "geometry": {
        "type": "Point",
        "coordinates": [-114.349, 27.3504]
      },
      "properties": {
        "name": "ta Tin",
        "realm_idx": 7,
        "order": "The Order of Reflection",
        "resources": ["Coal", "Copper", "Wood"]
      }
    },
    {
      "type": "Feature",
      "geometry": {
        "type": "Point",
        "coordinates": [-128.18, -5.1997]
      },
      "properties": {
        "name": "M\u00e1kosk\u00fak",
        "realm_idx": 8,
        "order": "The Order of Detection",
        "resources": ["Wood", "Silver", "Stone", "Coal"]
      }
    },
    {
      "type": "Feature",
      "geometry": {
        "type": "Point",
        "coordinates": [-57.6701, 45.7468]
      },
      "properties": {
        "name": "Niotsae",
        "realm_idx": 9,
        "order": "The Order of Fury",
        "resources": ["Wood", "Obsidian", "Coal"]
      }
    },
    {
      "type": "Feature",
      "geometry": {
        "type": "Point",
        "coordinates": [113.6068, -0.8031]
      },
      "properties": {
        "name": "\u2018unpik",
        "realm_idx": 10,
        "order": "The Order of Perfection",
        "resources": ["Coal", "Stone", "Silver", "Wood", "Copper"]
      }
    },
    {
      "type": "Feature",
      "geometry": {
        "type": "Point",
        "coordinates": [-58.6047, 12.5257]
      },
      "properties": {
        "name": "Ozh\u00e9ch",
        "realm_idx": 11,
        "order": "The Order of Fury",
        "resources": ["Coal"]
      }
    },
    {
      "type": "Feature",
      "geometry": {
        "type": "Point",
        "coordinates": [-58.7529, 45.68]
      },
      "properties": {
        "name": "L\u00e4n\u00e4ngun",
        "realm_idx": 12,
        "order": "The Order of Fury",
        "resources": ["Coal", "Wood"]
      }
    },
    {
      "type": "Feature",
      "geometry": {
        "type": "Point",
        "coordinates": [75.6471, 26.08]
      },
      "properties": {
        "name": "Tultul",
        "realm_idx": 13,
        "order": "The Order of Skill",
        "resources": ["Stone", "Gold"]
      }
    },
    {
      "type": "Feature",
      "geometry": {
        "type": "Point",
        "coordinates": [79.7471, -20.92]
      },
      "properties": {
        "name": "t\u00e1l \u0160nislis",
        "realm_idx": 14,
        "order": "The Order of Perfection",
        "resources": ["Mithral", "Coal"]
      }
    },
    {
      "type": "Feature",
      "geometry": {
        "type": "Point",
        "coordinates": [-89.18, -15.0997]
      },
      "properties": {
        "name": "Qeujqeujwouw",
        "realm_idx": 15,
        "order": "The Order of Reflection",
        "resources": ["Stone", "Wood", "Copper"]
      }
    },
    {
      "type": "Feature",
      "geometry": {
        "type": "Point",
        "coordinates": [-117.48, 17.4003]
      },
      "properties": {
        "name": "\u00cf\u0161-Arg",
        "realm_idx": 16,
        "order": "The Order of Detection",
        "resources": ["Copper", "Silver"]
      }
    },
    {
      "type": "Feature",
      "geometry": {
        "type": "Point",
        "coordinates": [94.4471, 12.18]
      },
      "properties": {
        "name": "Skassluk",
        "realm_idx": 17,
        "order": "The Order of Brilliance",
        "resources": ["Wood", "Stone", "Coal"]
      }
    },
    {
      "type": "Feature",
      "geometry": {
        "type": "Point",
        "coordinates": [-89.4801, -48.1996]
      },
      "properties": {
        "name": "Ulolepon",
        "realm_idx": 18,
        "order": "The Order of the Twins",
        "resources": ["Stone", "Coal", "Copper"]
      }
    },
    {
      "type": "Feature",
      "geometry": {
        "type": "Point",
        "coordinates": [-105.88, -5.6997]
      },
      "properties": {
        "name": "Emilsh Imnos",
        "realm_idx": 19,
        "order": "The Order of Reflection",
        "resources": ["Coal", "Silver", "Wood", "Copper"]
      }
    },
    {
      "type": "Feature",
      "geometry": {
        "type": "Point",
        "coordinates": [54.0471, -22.32]
      },
      "properties": {
        "name": "Uyqlayros",
        "realm_idx": 20,
        "order": "The Order of Giants",
        "resources": ["Silver"]
      }
    },
    {
      "type": "Feature",
      "geometry": {
        "type": "Point",
        "coordinates": [-118.88, 11.8003]
      },
      "properties": {
        "name": "Lemoltnuls",
        "realm_idx": 21,
        "order": "The Order of Detection",
        "resources": ["Silver", "Wood", "Alchemical Silver", "Stone"]
      }
    },
    {
      "type": "Feature",
      "geometry": {
        "type": "Point",
        "coordinates": [126.678, 8.7865]
      },
      "properties": {
        "name": "Hemmemsk\u00e4n",
        "realm_idx": 22,
        "order": "The Order of Protection",
        "resources": [
          "Coal",
          "Silver",
          "Wood",
          "Cold Iron",
          "Stone",
          "Ironwood"
        ]
      }
    },
    {
      "type": "Feature",
      "geometry": {
        "type": "Point",
        "coordinates": [-127.88, -11.9997]
      },
      "properties": {
        "name": "Ur Murorzh",
        "realm_idx": 23,
        "order": "The Order of Detection",
        "resources": [
          "Alchemical Silver",
          "Silver",
          "Cold Iron",
          "Deep Crystal",
          "Stone"
        ]
      }
    },
    {
      "type": "Feature",
      "geometry": {
        "type": "Point",
        "coordinates": [75.7471, -13.92]
      },
      "properties": {
        "name": "Poi a Polih",
        "realm_idx": 24,
        "order": "The Order of Perfection",
        "resources": ["Stone"]
      }
    },
    {
      "type": "Feature",
      "geometry": {
        "type": "Point",
        "coordinates": [-117.88, 13.1003]
      },
      "properties": {
        "name": "Aunomim",
        "realm_idx": 25,
        "order": "The Order of Detection",
        "resources": ["Wood", "Copper", "Ruby"]
      }
    },
    {
      "type": "Feature",
      "geometry": {
        "type": "Point",
        "coordinates": [30.7471, -9.62]
      },
      "properties": {
        "name": "lel K\u00fabklor",
        "realm_idx": 26,
        "order": "The Order of Power",
        "resources": ["Obsidian", "Cold Iron", "Stone", "Gold", "Wood"]
      }
    },
    {
      "type": "Feature",
      "geometry": {
        "type": "Point",
        "coordinates": [99.7471, -12.72]
      },
      "properties": {
        "name": "Konlompon",
        "realm_idx": 27,
        "order": "The Order of Perfection",
        "resources": ["Diamonds"]
      }
    },
    {
      "type": "Feature",
      "geometry": {
        "type": "Point",
        "coordinates": [-42.6927, 52.9557]
      },
      "properties": {
        "name": "Quokquok",
        "realm_idx": 28,
        "order": "The Order of Fury",
        "resources": ["Coal", "Stone", "Wood", "Obsidian"]
      }
    },
    {
      "type": "Feature",
      "geometry": {
        "type": "Point",
        "coordinates": [-40.0529, -6.82]
      },
      "properties": {
        "name": "ken Nint\u00e4n",
        "realm_idx": 29,
        "order": "The Order of the Fox",
        "resources": [
          "Hartwood",
          "Silver",
          "Cold Iron",
          "Stone",
          "Coal",
          "Wood"
        ]
      }
    },
    {
      "type": "Feature",
      "geometry": {
        "type": "Point",
        "coordinates": [9.6471, 34.58]
      },
      "properties": {
        "name": "Um nyn Ansyn",
        "realm_idx": 30,
        "order": "The Order of Titans",
        "resources": ["Hartwood", "Obsidian", "Stone"]
      }
    },
    {
      "type": "Feature",
      "geometry": {
        "type": "Point",
        "coordinates": [21.4471, 47.58]
      },
      "properties": {
        "name": "\u2018ilh\u2018ilhmil",
        "realm_idx": 31,
        "order": "The Order of Titans",
        "resources": ["Wood", "Coal", "Copper"]
      }
    },
    {
      "type": "Feature",
      "geometry": {
        "type": "Point",
        "coordinates": [-52.68, -46.5997]
      },
      "properties": {
        "name": "up \u00cdm\u00e1s\u00edmis",
        "realm_idx": 32,
        "order": "The Order of the Fox",
        "resources": ["Stone", "Copper", "Coal"]
      }
    },
    {
      "type": "Feature",
      "geometry": {
        "type": "Point",
        "coordinates": [87.7471, 4.88]
      },
      "properties": {
        "name": "Anonganimong",
        "realm_idx": 33,
        "order": "The Order of Brilliance",
        "resources": ["Silver", "Hartwood", "Ironwood", "Wood"]
      }
    },
    {
      "type": "Feature",
      "geometry": {
        "type": "Point",
        "coordinates": [-107.68, 0.4003]
      },
      "properties": {
        "name": "Zhusa-Letepo",
        "realm_idx": 34,
        "order": "The Order of Reflection",
        "resources": ["Coal", "Wood", "Ironwood", "Obsidian", "Diamonds"]
      }
    },
    {
      "type": "Feature",
      "geometry": {
        "type": "Point",
        "coordinates": [69.8015, -15.4092]
      },
      "properties": {
        "name": "Temleknonnep",
        "realm_idx": 35,
        "order": "The Order of Perfection",
        "resources": [
          "Cold Iron",
          "Obsidian",
          "Stone",
          "Wood",
          "Ironwood",
          "Silver"
        ]
      }
    },
    {
      "type": "Feature",
      "geometry": {
        "type": "Point",
        "coordinates": [-103.98, -7.1997]
      },
      "properties": {
        "name": "Sn\u00fadusugato",
        "realm_idx": 36,
        "order": "The Order of Reflection",
        "resources": ["Wood", "Copper", "Stone", "Ignium", "Coal"]
      }
    },
    {
      "type": "Feature",
      "geometry": {
        "type": "Point",
        "coordinates": [115.8618, 5.9607]
      },
      "properties": {
        "name": "Windom Dun",
        "realm_idx": 37,
        "order": "The Order of Protection",
        "resources": ["Wood", "Cold Iron", "Copper", "Coal"]
      }
    },
    {
      "type": "Feature",
      "geometry": {
        "type": "Point",
        "coordinates": [58.7471, 33.68]
      },
      "properties": {
        "name": "Sd\u00eddzhish",
        "realm_idx": 38,
        "order": "The Order of Skill",
        "resources": ["Wood", "Cold Iron"]
      }
    },
    {
      "type": "Feature",
      "geometry": {
        "type": "Point",
        "coordinates": [91.6852, -16.9351]
      },
      "properties": {
        "name": "Mensinnon",
        "realm_idx": 39,
        "order": "The Order of Perfection",
        "resources": ["Gold", "Copper", "Wood", "Coal"]
      }
    },
    {
      "type": "Feature",
      "geometry": {
        "type": "Point",
        "coordinates": [68.5471, 41.98]
      },
      "properties": {
        "name": "Skapnap",
        "realm_idx": 40,
        "order": "The Order of Skill",
        "resources": ["Coal", "Wood", "Ironwood"]
      }
    },
    {
      "type": "Feature",
      "geometry": {
        "type": "Point",
        "coordinates": [95.5471, 11.58]
      },
      "properties": {
        "name": "Keuk Duokkou",
        "realm_idx": 41,
        "order": "The Order of Brilliance",
        "resources": ["Coal", "Deep Crystal", "Wood"]
      }
    },
    {
      "type": "Feature",
      "geometry": {
        "type": "Point",
        "coordinates": [97.0993, -19.4254]
      },
      "properties": {
        "name": "Randulghid",
        "realm_idx": 42,
        "order": "The Order of Perfection",
        "resources": ["Cold Iron", "Ironwood", "Wood", "Coal", "Stone"]
      }
    },
    {
      "type": "Feature",
      "geometry": {
        "type": "Point",
        "coordinates": [-15.6529, -28.12]
      },
      "properties": {
        "name": "Nisku",
        "realm_idx": 43,
        "order": "The Order of Power",
        "resources": ["Stone"]
      }
    },
    {
      "type": "Feature",
      "geometry": {
        "type": "Point",
        "coordinates": [-29.9529, 26.58]
      },
      "properties": {
        "name": "Duyshbo",
        "realm_idx": 44,
        "order": "The Order of Vitriol",
        "resources": ["Cold Iron", "Copper", "Wood", "Stone", "Obsidian"]
      }
    },
    {
      "type": "Feature",
      "geometry": {
        "type": "Point",
        "coordinates": [-36.4689, -10.6388]
      },
      "properties": {
        "name": "\u00cdw\u00e1w Ulul",
        "realm_idx": 45,
        "order": "The Order of the Fox",
        "resources": ["Stone", "Wood", "Coal", "Copper"]
      }
    },
    {
      "type": "Feature",
      "geometry": {
        "type": "Point",
        "coordinates": [-59.28, 10.8003]
      },
      "properties": {
        "name": "N\u00f3tkaun",
        "realm_idx": 46,
        "order": "The Order of Fury",
        "resources": ["Stone", "Copper", "Wood", "Coal"]
      }
    },
    {
      "type": "Feature",
      "geometry": {
        "type": "Point",
        "coordinates": [81.5471, -19.72]
      },
      "properties": {
        "name": "N\u00ef\u00e4n\u00ebon",
        "realm_idx": 47,
        "order": "The Order of Perfection",
        "resources": ["Wood", "Obsidian", "Copper"]
      }
    },
    {
      "type": "Feature",
      "geometry": {
        "type": "Point",
        "coordinates": [-51.88, -47.1997]
      },
      "properties": {
        "name": "Or-Urnpir",
        "realm_idx": 48,
        "order": "The Order of the Fox",
        "resources": ["Stone", "Copper"]
      }
    },
    {
      "type": "Feature",
      "geometry": {
        "type": "Point",
        "coordinates": [-125.58, 7.9003]
      },
      "properties": {
        "name": "L\u00edsh\u00edm\u00e1",
        "realm_idx": 49,
        "order": "The Order of Detection",
        "resources": ["Wood"]
      }
    },
    {
      "type": "Feature",
      "geometry": {
        "type": "Point",
        "coordinates": [-123.58, 8.1003]
      },
      "properties": {
        "name": "Konkonkinnan",
        "realm_idx": 50,
        "order": "The Order of Detection",
        "resources": ["Stone", "Wood", "Coal"]
      }
    },
    {
      "type": "Feature",
      "geometry": {
        "type": "Point",
        "coordinates": [0.0471, 46.08]
      },
      "properties": {
        "name": "\u2018ilweli",
        "realm_idx": 51,
        "order": "The Order of Titans",
        "resources": ["Coal", "Wood", "Hartwood", "Copper", "Cold Iron"]
      }
    },
    {
      "type": "Feature",
      "geometry": {
        "type": "Point",
        "coordinates": [-4.8529, -26.22]
      },
      "properties": {
        "name": "Unum-Ununan",
        "realm_idx": 52,
        "order": "The Order of Power",
        "resources": ["Ironwood", "Obsidian"]
      }
    },
    {
      "type": "Feature",
      "geometry": {
        "type": "Point",
        "coordinates": [7.4471, -15.12]
      },
      "properties": {
        "name": "U-pu-Hunak",
        "realm_idx": 53,
        "order": "The Order of Power",
        "resources": ["Hartwood", "Stone"]
      }
    },
    {
      "type": "Feature",
      "geometry": {
        "type": "Point",
        "coordinates": [-62.8708, 47.3956]
      },
      "properties": {
        "name": "Loseplal",
        "realm_idx": 54,
        "order": "The Order of Fury",
        "resources": ["Twilight Quartz", "Wood", "Coal"]
      }
    },
    {
      "type": "Feature",
      "geometry": {
        "type": "Point",
        "coordinates": [58.9471, 25.58]
      },
      "properties": {
        "name": "Pinten",
        "realm_idx": 55,
        "order": "The Order of Skill",
        "resources": ["Wood", "Silver", "Ironwood"]
      }
    },
    {
      "type": "Feature",
      "geometry": {
        "type": "Point",
        "coordinates": [55.9471, 30.08]
      },
      "properties": {
        "name": "Gompon",
        "realm_idx": 56,
        "order": "The Order of Skill",
        "resources": ["Ignium", "Wood"]
      }
    },
    {
      "type": "Feature",
      "geometry": {
        "type": "Point",
        "coordinates": [1.2471, -3.12]
      },
      "properties": {
        "name": "Kum Pin",
        "realm_idx": 57,
        "order": "The Order of Power",
        "resources": ["Coal", "Ruby", "Silver"]
      }
    },
    {
      "type": "Feature",
      "geometry": {
        "type": "Point",
        "coordinates": [53.6471, 14.58]
      },
      "properties": {
        "name": "rien Katvier",
        "realm_idx": 58,
        "order": "The Order of Brilliance",
        "resources": ["Wood", "Silver"]
      }
    },
    {
      "type": "Feature",
      "geometry": {
        "type": "Point",
        "coordinates": [62.2471, 16.58]
      },
      "properties": {
        "name": "Ngimsngamgin",
        "realm_idx": 59,
        "order": "The Order of Skill",
        "resources": ["Wood", "Silver", "Cold Iron"]
      }
    },
    {
      "type": "Feature",
      "geometry": {
        "type": "Point",
        "coordinates": [-34.4529, 14.88]
      },
      "properties": {
        "name": "Schint\u00edsi",
        "realm_idx": 60,
        "order": "The Order of Vitriol",
        "resources": ["Coal", "Ironwood", "Stone"]
      }
    },
    {
      "type": "Feature",
      "geometry": {
        "type": "Point",
        "coordinates": [-75.7801, 44.9004]
      },
      "properties": {
        "name": "Siwseysawp",
        "realm_idx": 61,
        "order": "The Order of Anger",
        "resources": ["Stone", "Wood", "Coal", "Copper", "Ironwood"]
      }
    },
    {
      "type": "Feature",
      "geometry": {
        "type": "Point",
        "coordinates": [52.5471, 30.78]
      },
      "properties": {
        "name": "Emalim",
        "realm_idx": 62,
        "order": "The Order of Skill",
        "resources": ["Wood", "Coal", "Copper", "Cold Iron", "Stone"]
      }
    },
    {
      "type": "Feature",
      "geometry": {
        "type": "Point",
        "coordinates": [-97.2801, 45.1004]
      },
      "properties": {
        "name": "as Oket",
        "realm_idx": 63,
        "order": "The Order of Anger",
        "resources": ["Copper", "Wood", "Hartwood", "Coal"]
      }
    },
    {
      "type": "Feature",
      "geometry": {
        "type": "Point",
        "coordinates": [-105.9201, 43.098]
      },
      "properties": {
        "name": "Goxnlen",
        "realm_idx": 64,
        "order": "The Order of Anger",
        "resources": ["Ironwood", "Gold", "Obsidian", "Silver", "Wood"]
      }
    },
    {
      "type": "Feature",
      "geometry": {
        "type": "Point",
        "coordinates": [36.4471, 0.28]
      },
      "properties": {
        "name": "Klehl\u00eaktlik",
        "realm_idx": 65,
        "order": "The Order of Giants",
        "resources": ["Copper", "Obsidian", "Wood", "Stone"]
      }
    },
    {
      "type": "Feature",
      "geometry": {
        "type": "Point",
        "coordinates": [-104.7801, 39.3004]
      },
      "properties": {
        "name": "Nriputam",
        "realm_idx": 66,
        "order": "The Order of Anger",
        "resources": ["Silver", "True Ice", "Deep Crystal", "Coal"]
      }
    },
    {
      "type": "Feature",
      "geometry": {
        "type": "Point",
        "coordinates": [-21.9529, 43.08]
      },
      "properties": {
        "name": "Elolkalnul",
        "realm_idx": 67,
        "order": "The Order of Vitriol",
        "resources": ["Coal", "Stone", "Copper", "Gold"]
      }
    },
    {
      "type": "Feature",
      "geometry": {
        "type": "Point",
        "coordinates": [95.3471, 47.98]
      },
      "properties": {
        "name": "Lounloun",
        "realm_idx": 68,
        "order": "The Order of Enlightenment",
        "resources": ["Wood"]
      }
    },
    {
      "type": "Feature",
      "geometry": {
        "type": "Point",
        "coordinates": [-89.2801, 46.4004]
      },
      "properties": {
        "name": "Syunnan-Tin",
        "realm_idx": 69,
        "order": "The Order of Anger",
        "resources": ["Stone", "Copper", "Wood"]
      }
    },
    {
      "type": "Feature",
      "geometry": {
        "type": "Point",
        "coordinates": [96.3471, 58.28]
      },
      "properties": {
        "name": "Pweis",
        "realm_idx": 70,
        "order": "The Order of Enlightenment",
        "resources": ["Hartwood", "Wood"]
      }
    },
    {
      "type": "Feature",
      "geometry": {
        "type": "Point",
        "coordinates": [39.7471, -32.72]
      },
      "properties": {
        "name": "Pem\u2018\u00e2p Pi\u2018",
        "realm_idx": 71,
        "order": "The Order of Giants",
        "resources": ["Stone", "Obsidian", "Gold"]
      }
    },
    {
      "type": "Feature",
      "geometry": {
        "type": "Point",
        "coordinates": [-129.98, -13.4997]
      },
      "properties": {
        "name": "Mol\u00e9mok\u00e1slul",
        "realm_idx": 72,
        "order": "The Order of Detection",
        "resources": ["Wood"]
      }
    },
    {
      "type": "Feature",
      "geometry": {
        "type": "Point",
        "coordinates": [114.8471, 43.38]
      },
      "properties": {
        "name": "Nikun Hihni",
        "realm_idx": 73,
        "order": "The Order of Enlightenment",
        "resources": ["Stone", "Copper", "Wood"]
      }
    },
    {
      "type": "Feature",
      "geometry": {
        "type": "Point",
        "coordinates": [57.2471, -21.32]
      },
      "properties": {
        "name": "Punsittil",
        "realm_idx": 74,
        "order": "The Order of Giants",
        "resources": ["True Ice", "Copper", "Obsidian"]
      }
    },
    {
      "type": "Feature",
      "geometry": {
        "type": "Point",
        "coordinates": [-53.6529, 47.48]
      },
      "properties": {
        "name": "Hueteumuam",
        "realm_idx": 75,
        "order": "The Order of Fury",
        "resources": ["Obsidian", "Mithral", "Silver"]
      }
    },
    {
      "type": "Feature",
      "geometry": {
        "type": "Point",
        "coordinates": [94.6471, 15.48]
      },
      "properties": {
        "name": "Sguk Sjak",
        "realm_idx": 76,
        "order": "The Order of Brilliance",
        "resources": ["Gold", "Coal"]
      }
    },
    {
      "type": "Feature",
      "geometry": {
        "type": "Point",
        "coordinates": [42.4471, 11.88]
      },
      "properties": {
        "name": "Nalxgitxmik",
        "realm_idx": 77,
        "order": "The Order of Titans",
        "resources": ["Obsidian", "Deep Crystal", "Stone", "Wood"]
      }
    },
    {
      "type": "Feature",
      "geometry": {
        "type": "Point",
        "coordinates": [-31.7529, -7.92]
      },
      "properties": {
        "name": "Kl\u00edtsuk",
        "realm_idx": 78,
        "order": "The Order of the Fox",
        "resources": ["Wood", "Obsidian", "Coal", "Copper", "Ironwood"]
      }
    },
    {
      "type": "Feature",
      "geometry": {
        "type": "Point",
        "coordinates": [-53.88, -50.3996]
      },
      "properties": {
        "name": "Amtunung",
        "realm_idx": 79,
        "order": "The Order of the Fox",
        "resources": ["Stone", "Wood", "Gold", "Coal", "Copper"]
      }
    },
    {
      "type": "Feature",
      "geometry": {
        "type": "Point",
        "coordinates": [-64.88, -59.9996]
      },
      "properties": {
        "name": "\u0160j\u00e1pbjat\u0161j\u00e1p",
        "realm_idx": 80,
        "order": "The Order of the Fox",
        "resources": [
          "Cold Iron",
          "Ironwood",
          "Gold",
          "Coal",
          "Obsidian",
          "Wood"
        ]
      }
    },
    {
      "type": "Feature",
      "geometry": {
        "type": "Point",
        "coordinates": [104.7471, -8.82]
      },
      "properties": {
        "name": "Sel \u00d3lng\u00e1rq",
        "realm_idx": 81,
        "order": "The Order of Perfection",
        "resources": ["Wood", "Coal", "Ironwood"]
      }
    },
    {
      "type": "Feature",
      "geometry": {
        "type": "Point",
        "coordinates": [-118.48, 34.6003]
      },
      "properties": {
        "name": "Siosua",
        "realm_idx": 82,
        "order": "The Order of Reflection",
        "resources": ["Wood", "Copper", "Stone"]
      }
    },
    {
      "type": "Feature",
      "geometry": {
        "type": "Point",
        "coordinates": [-117.28, 9.6003]
      },
      "properties": {
        "name": "Mihiko",
        "realm_idx": 83,
        "order": "The Order of Detection",
        "resources": ["Wood"]
      }
    },
    {
      "type": "Feature",
      "geometry": {
        "type": "Point",
        "coordinates": [-56.7956, -50.2645]
      },
      "properties": {
        "name": "Oqovuv",
        "realm_idx": 84,
        "order": "The Order of the Fox",
        "resources": ["Coal", "Copper"]
      }
    },
    {
      "type": "Feature",
      "geometry": {
        "type": "Point",
        "coordinates": [-88.0758, 45.7623]
      },
      "properties": {
        "name": "Munsmum",
        "realm_idx": 85,
        "order": "The Order of Anger",
        "resources": ["Silver", "Stone", "Obsidian"]
      }
    },
    {
      "type": "Feature",
      "geometry": {
        "type": "Point",
        "coordinates": [-117.28, 8.7003]
      },
      "properties": {
        "name": "Pengse",
        "realm_idx": 86,
        "order": "The Order of Detection",
        "resources": ["Coal", "Stone", "Obsidian", "Hartwood"]
      }
    },
    {
      "type": "Feature",
      "geometry": {
        "type": "Point",
        "coordinates": [-89.1801, -33.2996]
      },
      "properties": {
        "name": "Gislegob",
        "realm_idx": 87,
        "order": "The Order of the Twins",
        "resources": ["Coal"]
      }
    },
    {
      "type": "Feature",
      "geometry": {
        "type": "Point",
        "coordinates": [93.5471, 48.78]
      },
      "properties": {
        "name": "Momskemsken",
        "realm_idx": 88,
        "order": "The Order of Enlightenment",
        "resources": ["Stone", "Ironwood", "Wood", "Obsidian"]
      }
    },
    {
      "type": "Feature",
      "geometry": {
        "type": "Point",
        "coordinates": [-104.28, -7.7997]
      },
      "properties": {
        "name": "sh\u00eds T\u00e9ssm\u00e9s",
        "realm_idx": 89,
        "order": "The Order of Reflection",
        "resources": ["Wood", "Coal"]
      }
    },
    {
      "type": "Feature",
      "geometry": {
        "type": "Point",
        "coordinates": [56.7471, -44.52]
      },
      "properties": {
        "name": "Det\u00fasek Ekek",
        "realm_idx": 90,
        "order": "The Order of Giants",
        "resources": ["Copper", "Coal", "Stone"]
      }
    },
    {
      "type": "Feature",
      "geometry": {
        "type": "Point",
        "coordinates": [95.1471, 42.18]
      },
      "properties": {
        "name": "Idududim",
        "realm_idx": 91,
        "order": "The Order of Enlightenment",
        "resources": ["Silver", "Coal", "Stone"]
      }
    },
    {
      "type": "Feature",
      "geometry": {
        "type": "Point",
        "coordinates": [34.3471, -10.92]
      },
      "properties": {
        "name": "Nenne",
        "realm_idx": 92,
        "order": "The Order of Giants",
        "resources": ["Wood", "Coal", "Ignium"]
      }
    },
    {
      "type": "Feature",
      "geometry": {
        "type": "Point",
        "coordinates": [-93.1801, 49.1004]
      },
      "properties": {
        "name": "Spinkonpin",
        "realm_idx": 93,
        "order": "The Order of Anger",
        "resources": ["Silver", "Ironwood"]
      }
    },
    {
      "type": "Feature",
      "geometry": {
        "type": "Point",
        "coordinates": [42.6471, -13.72]
      },
      "properties": {
        "name": "Poils\u00eaul Pos",
        "realm_idx": 94,
        "order": "The Order of Giants",
        "resources": ["Stone", "Cold Iron", "Coal"]
      }
    },
    {
      "type": "Feature",
      "geometry": {
        "type": "Point",
        "coordinates": [110.2925, -19.6809]
      },
      "properties": {
        "name": "shuh Spu",
        "realm_idx": 95,
        "order": "The Order of Protection",
        "resources": ["Stone", "Coal"]
      }
    },
    {
      "type": "Feature",
      "geometry": {
        "type": "Point",
        "coordinates": [106.6471, 49.28]
      },
      "properties": {
        "name": "Susuki",
        "realm_idx": 96,
        "order": "The Order of Enlightenment",
        "resources": ["Ironwood", "Coal", "Stone", "Copper", "Wood"]
      }
    },
    {
      "type": "Feature",
      "geometry": {
        "type": "Point",
        "coordinates": [85.4471, -7.22]
      },
      "properties": {
        "name": "Tawmnu",
        "realm_idx": 97,
        "order": "The Order of Brilliance",
        "resources": ["Wood", "Copper", "Silver"]
      }
    },
    {
      "type": "Feature",
      "geometry": {
        "type": "Point",
        "coordinates": [1.0471, 8.98]
      },
      "properties": {
        "name": "Smenkin",
        "realm_idx": 98,
        "order": "The Order of Titans",
        "resources": ["Wood", "Cold Iron", "Coal", "Copper"]
      }
    },
    {
      "type": "Feature",
      "geometry": {
        "type": "Point",
        "coordinates": [85.9592, -23.9063]
      },
      "properties": {
        "name": "Nint\u00fam",
        "realm_idx": 99,
        "order": "The Order of Perfection",
        "resources": ["Obsidian", "Coal", "Cold Iron", "Ruby", "Wood"]
      }
    },
    {
      "type": "Feature",
      "geometry": {
        "type": "Point",
        "coordinates": [112.7471, 10.28]
      },
      "properties": {
        "name": "Kaatsnootstu",
        "realm_idx": 100,
        "order": "The Order of Protection",
        "resources": [
          "Silver",
          "Coal",
          "Stone",
          "Deep Crystal",
          "Wood",
          "Ironwood"
        ]
      }
    },
    {
      "type": "Feature",
      "geometry": {
        "type": "Point",
        "coordinates": [114.469, -22.7292]
      },
      "properties": {
        "name": "Umpojkmikpop",
        "realm_idx": 101,
        "order": "The Order of Protection",
        "resources": ["Coal", "Silver", "Stone"]
      }
    },
    {
      "type": "Feature",
      "geometry": {
        "type": "Point",
        "coordinates": [-65.18, 28.7003]
      },
      "properties": {
        "name": "Niopzhop",
        "realm_idx": 102,
        "order": "The Order of Fury",
        "resources": ["Copper", "Wood", "Coal", "Silver", "Obsidian"]
      }
    },
    {
      "type": "Feature",
      "geometry": {
        "type": "Point",
        "coordinates": [67.4471, 20.78]
      },
      "properties": {
        "name": "Shetep",
        "realm_idx": 103,
        "order": "The Order of Skill",
        "resources": ["Cold Iron", "Copper", "Stone", "Wood"]
      }
    },
    {
      "type": "Feature",
      "geometry": {
        "type": "Point",
        "coordinates": [78.1471, 22.28]
      },
      "properties": {
        "name": "L\u00e2vqyvvio",
        "realm_idx": 104,
        "order": "The Order of Skill",
        "resources": ["Copper", "Wood", "Coal", "Stone"]
      }
    },
    {
      "type": "Feature",
      "geometry": {
        "type": "Point",
        "coordinates": [80.2471, 23.38]
      },
      "properties": {
        "name": "Dawudhijkid",
        "realm_idx": 105,
        "order": "The Order of Skill",
        "resources": ["Copper", "Diamonds", "Wood", "Stone"]
      }
    },
    {
      "type": "Feature",
      "geometry": {
        "type": "Point",
        "coordinates": [17.4471, -34.92]
      },
      "properties": {
        "name": "Lopgach",
        "realm_idx": 106,
        "order": "The Order of Power",
        "resources": ["Copper", "Cold Iron", "Wood", "Obsidian"]
      }
    },
    {
      "type": "Feature",
      "geometry": {
        "type": "Point",
        "coordinates": [-65.1801, 4.1004]
      },
      "properties": {
        "name": "Silli Suulko",
        "realm_idx": 107,
        "order": "The Order of Rage",
        "resources": ["Stone", "Copper", "Coal", "Obsidian", "Wood"]
      }
    },
    {
      "type": "Feature",
      "geometry": {
        "type": "Point",
        "coordinates": [115.2471, 36.48]
      },
      "properties": {
        "name": "Komali",
        "realm_idx": 108,
        "order": "The Order of Enlightenment",
        "resources": ["Silver", "Stone", "Copper", "Coal"]
      }
    },
    {
      "type": "Feature",
      "geometry": {
        "type": "Point",
        "coordinates": [94.3471, 29.78]
      },
      "properties": {
        "name": "Srulkrekuk",
        "realm_idx": 109,
        "order": "The Order of Enlightenment",
        "resources": [
          "Stone",
          "Wood",
          "Twilight Quartz",
          "Ironwood",
          "Cold Iron",
          "Hartwood"
        ]
      }
    },
    {
      "type": "Feature",
      "geometry": {
        "type": "Point",
        "coordinates": [56.7471, 6.98]
      },
      "properties": {
        "name": "Raryrir",
        "realm_idx": 110,
        "order": "The Order of Brilliance",
        "resources": ["Wood"]
      }
    },
    {
      "type": "Feature",
      "geometry": {
        "type": "Point",
        "coordinates": [-37.8841, -10.7095]
      },
      "properties": {
        "name": "Owuwul",
        "realm_idx": 111,
        "order": "The Order of the Fox",
        "resources": ["Stone", "Gold"]
      }
    },
    {
      "type": "Feature",
      "geometry": {
        "type": "Point",
        "coordinates": [9.2471, 32.48]
      },
      "properties": {
        "name": "Kuimkuip",
        "realm_idx": 112,
        "order": "The Order of Titans",
        "resources": ["Copper", "Wood"]
      }
    },
    {
      "type": "Feature",
      "geometry": {
        "type": "Point",
        "coordinates": [-73.4801, 40.1004]
      },
      "properties": {
        "name": "Purskirkir",
        "realm_idx": 113,
        "order": "The Order of Anger",
        "resources": ["Copper"]
      }
    },
    {
      "type": "Feature",
      "geometry": {
        "type": "Point",
        "coordinates": [-55.156, 56.9385]
      },
      "properties": {
        "name": "Tchontcho",
        "realm_idx": 114,
        "order": "The Order of Fury",
        "resources": ["Obsidian", "Copper", "Gold"]
      }
    },
    {
      "type": "Feature",
      "geometry": {
        "type": "Point",
        "coordinates": [55.6471, 6.88]
      },
      "properties": {
        "name": "k\u00ef-Nis\u00eflm",
        "realm_idx": 115,
        "order": "The Order of Brilliance",
        "resources": ["Obsidian"]
      }
    },
    {
      "type": "Feature",
      "geometry": {
        "type": "Point",
        "coordinates": [70.5471, -26.72]
      },
      "properties": {
        "name": "Kik\u2018enlulkik",
        "realm_idx": 116,
        "order": "The Order of Perfection",
        "resources": ["Coal", "Copper"]
      }
    },
    {
      "type": "Feature",
      "geometry": {
        "type": "Point",
        "coordinates": [-125.68, 7.4003]
      },
      "properties": {
        "name": "Qenkon",
        "realm_idx": 117,
        "order": "The Order of Detection",
        "resources": ["Ironwood", "Wood", "Hartwood", "Coal"]
      }
    },
    {
      "type": "Feature",
      "geometry": {
        "type": "Point",
        "coordinates": [-35.7529, -5.12]
      },
      "properties": {
        "name": "Songkensong",
        "realm_idx": 118,
        "order": "The Order of the Fox",
        "resources": ["Coal", "Hartwood", "Ironwood", "Wood"]
      }
    },
    {
      "type": "Feature",
      "geometry": {
        "type": "Point",
        "coordinates": [26.2471, -33.22]
      },
      "properties": {
        "name": "Chruktrikwik",
        "realm_idx": 119,
        "order": "The Order of Giants",
        "resources": ["Adamantine", "Obsidian", "Wood", "Stone"]
      }
    },
    {
      "type": "Feature",
      "geometry": {
        "type": "Point",
        "coordinates": [100.0615, -11.6644]
      },
      "properties": {
        "name": "Nramkan",
        "realm_idx": 120,
        "order": "The Order of Perfection",
        "resources": ["Stone", "Wood"]
      }
    },
    {
      "type": "Feature",
      "geometry": {
        "type": "Point",
        "coordinates": [59.2471, 33.68]
      },
      "properties": {
        "name": "K\u00efrl\u00efdl\u00efd",
        "realm_idx": 121,
        "order": "The Order of Skill",
        "resources": ["Coal", "Wood", "Copper", "Stone"]
      }
    },
    {
      "type": "Feature",
      "geometry": {
        "type": "Point",
        "coordinates": [96.3471, 42.88]
      },
      "properties": {
        "name": "Muki Kaki",
        "realm_idx": 122,
        "order": "The Order of Enlightenment",
        "resources": ["Wood", "Cold Iron", "Stone", "Mithral"]
      }
    },
    {
      "type": "Feature",
      "geometry": {
        "type": "Point",
        "coordinates": [63.0471, 22.98]
      },
      "properties": {
        "name": "Glumxixkum",
        "realm_idx": 123,
        "order": "The Order of Skill",
        "resources": ["Stone", "Gold", "Coal", "Silver", "Cold Iron"]
      }
    },
    {
      "type": "Feature",
      "geometry": {
        "type": "Point",
        "coordinates": [-130.68, -5.5997]
      },
      "properties": {
        "name": "Fdiqchud",
        "realm_idx": 124,
        "order": "The Order of Detection",
        "resources": ["Stone", "Ironwood", "Coal"]
      }
    },
    {
      "type": "Feature",
      "geometry": {
        "type": "Point",
        "coordinates": [4.4471, -1.72]
      },
      "properties": {
        "name": "Enh\u00fcm",
        "realm_idx": 125,
        "order": "The Order of Power",
        "resources": ["Coal", "Ruby", "Wood", "Obsidian"]
      }
    },
    {
      "type": "Feature",
      "geometry": {
        "type": "Point",
        "coordinates": [-54.28, -31.9997]
      },
      "properties": {
        "name": "Dupchiep",
        "realm_idx": 126,
        "order": "The Order of the Fox",
        "resources": ["Stone", "Wood", "Gold"]
      }
    },
    {
      "type": "Feature",
      "geometry": {
        "type": "Point",
        "coordinates": [35.1471, -42.12]
      },
      "properties": {
        "name": "Us\u00e9l\u00e9s",
        "realm_idx": 127,
        "order": "The Order of Giants",
        "resources": ["Coal", "Wood", "Ironwood"]
      }
    },
    {
      "type": "Feature",
      "geometry": {
        "type": "Point",
        "coordinates": [-57.9801, -18.7996]
      },
      "properties": {
        "name": "pit Kuklak",
        "realm_idx": 128,
        "order": "The Order of the Twins",
        "resources": ["Wood", "Ironwood", "Coal", "Stone"]
      }
    },
    {
      "type": "Feature",
      "geometry": {
        "type": "Point",
        "coordinates": [40.8471, 10.68]
      },
      "properties": {
        "name": "Namum",
        "realm_idx": 129,
        "order": "The Order of Titans",
        "resources": ["Ironwood", "Wood", "Coal", "Stone"]
      }
    },
    {
      "type": "Feature",
      "geometry": {
        "type": "Point",
        "coordinates": [-67.1801, -19.6996]
      },
      "properties": {
        "name": "Nrussrim",
        "realm_idx": 130,
        "order": "The Order of the Twins",
        "resources": ["Hartwood", "Sapphire", "Coal"]
      }
    },
    {
      "type": "Feature",
      "geometry": {
        "type": "Point",
        "coordinates": [-11.7529, 22.28]
      },
      "properties": {
        "name": "Miqakami",
        "realm_idx": 131,
        "order": "The Order of Vitriol",
        "resources": ["Wood", "Silver"]
      }
    },
    {
      "type": "Feature",
      "geometry": {
        "type": "Point",
        "coordinates": [-45.0268, 52.3409]
      },
      "properties": {
        "name": "Zaizbun",
        "realm_idx": 132,
        "order": "The Order of Fury",
        "resources": ["Wood", "Gold", "Stone", "Copper"]
      }
    },
    {
      "type": "Feature",
      "geometry": {
        "type": "Point",
        "coordinates": [-119.38, 13.2003]
      },
      "properties": {
        "name": "At\u00edqij",
        "realm_idx": 133,
        "order": "The Order of Detection",
        "resources": ["Coal", "Sapphire", "Obsidian"]
      }
    },
    {
      "type": "Feature",
      "geometry": {
        "type": "Point",
        "coordinates": [115.0471, 28.28]
      },
      "properties": {
        "name": "Nganu",
        "realm_idx": 134,
        "order": "The Order of Enlightenment",
        "resources": ["Coal", "Hartwood"]
      }
    },
    {
      "type": "Feature",
      "geometry": {
        "type": "Point",
        "coordinates": [13.2471, -37.92]
      },
      "properties": {
        "name": "Lulu-Lulutik",
        "realm_idx": 135,
        "order": "The Order of Power",
        "resources": ["Wood", "Copper", "Adamantine", "Coal", "Silver"]
      }
    },
    {
      "type": "Feature",
      "geometry": {
        "type": "Point",
        "coordinates": [-89.2801, -20.2996]
      },
      "properties": {
        "name": "M\u00e1kk\u00e9 sok Mi",
        "realm_idx": 136,
        "order": "The Order of the Twins",
        "resources": ["Stone"]
      }
    },
    {
      "type": "Feature",
      "geometry": {
        "type": "Point",
        "coordinates": [109.4935, -20.1535]
      },
      "properties": {
        "name": "Sinsinsin",
        "realm_idx": 137,
        "order": "The Order of Protection",
        "resources": ["Coal", "Copper", "Deep Crystal", "Wood", "Cold Iron"]
      }
    },
    {
      "type": "Feature",
      "geometry": {
        "type": "Point",
        "coordinates": [-88.5801, -33.2996]
      },
      "properties": {
        "name": "Pengseng",
        "realm_idx": 138,
        "order": "The Order of the Twins",
        "resources": ["Ironwood", "Wood", "Coal"]
      }
    },
    {
      "type": "Feature",
      "geometry": {
        "type": "Point",
        "coordinates": [-42.5529, 3.68]
      },
      "properties": {
        "name": "Zarmaln",
        "realm_idx": 139,
        "order": "The Order of Vitriol",
        "resources": ["Coal", "Stone", "Ignium", "Wood", "Copper", "Cold Iron"]
      }
    },
    {
      "type": "Feature",
      "geometry": {
        "type": "Point",
        "coordinates": [83.6471, -18.22]
      },
      "properties": {
        "name": "Pjenmjum",
        "realm_idx": 140,
        "order": "The Order of Perfection",
        "resources": ["Obsidian"]
      }
    },
    {
      "type": "Feature",
      "geometry": {
        "type": "Point",
        "coordinates": [-3.2529, -3.72]
      },
      "properties": {
        "name": "Osmop",
        "realm_idx": 141,
        "order": "The Order of Power",
        "resources": ["Stone", "Coal", "Ethereal Silica"]
      }
    },
    {
      "type": "Feature",
      "geometry": {
        "type": "Point",
        "coordinates": [-45.3268, 52.4409]
      },
      "properties": {
        "name": "Duu Kemwoona",
        "realm_idx": 142,
        "order": "The Order of Fury",
        "resources": ["Wood", "True Ice", "Coal", "Stone", "Obsidian", "Gold"]
      }
    },
    {
      "type": "Feature",
      "geometry": {
        "type": "Point",
        "coordinates": [-0.9529, 26.08]
      },
      "properties": {
        "name": "sk\u00fan Chumkon",
        "realm_idx": 143,
        "order": "The Order of Vitriol",
        "resources": ["Wood", "Stone"]
      }
    },
    {
      "type": "Feature",
      "geometry": {
        "type": "Point",
        "coordinates": [43.9471, 3.28]
      },
      "properties": {
        "name": "Ukuletulipip",
        "realm_idx": 144,
        "order": "The Order of Brilliance",
        "resources": ["Stone", "Copper"]
      }
    },
    {
      "type": "Feature",
      "geometry": {
        "type": "Point",
        "coordinates": [87.2471, -14.22]
      },
      "properties": {
        "name": "Niuniugais",
        "realm_idx": 145,
        "order": "The Order of Perfection",
        "resources": ["Stone", "Wood"]
      }
    },
    {
      "type": "Feature",
      "geometry": {
        "type": "Point",
        "coordinates": [117.0644, -23.8546]
      },
      "properties": {
        "name": "Ghunbun",
        "realm_idx": 146,
        "order": "The Order of Protection",
        "resources": ["Wood"]
      }
    },
    {
      "type": "Feature",
      "geometry": {
        "type": "Point",
        "coordinates": [25.3471, -37.42]
      },
      "properties": {
        "name": "Teslesklek",
        "realm_idx": 147,
        "order": "The Order of Giants",
        "resources": ["Wood", "Stone", "Cold Iron"]
      }
    },
    {
      "type": "Feature",
      "geometry": {
        "type": "Point",
        "coordinates": [9.2471, 29.28]
      },
      "properties": {
        "name": "S\u00f3ls\u00f3l\u00f3liror",
        "realm_idx": 148,
        "order": "The Order of Titans",
        "resources": ["Stone"]
      }
    },
    {
      "type": "Feature",
      "geometry": {
        "type": "Point",
        "coordinates": [112.6412, -22.768]
      },
      "properties": {
        "name": "Semege",
        "realm_idx": 149,
        "order": "The Order of Protection",
        "resources": ["Wood"]
      }
    },
    {
      "type": "Feature",
      "geometry": {
        "type": "Point",
        "coordinates": [16.9471, 55.08]
      },
      "properties": {
        "name": "Leunhoalwiu",
        "realm_idx": 150,
        "order": "The Order of Titans",
        "resources": ["Copper", "Wood"]
      }
    },
    {
      "type": "Feature",
      "geometry": {
        "type": "Point",
        "coordinates": [117.8025, 5.2829]
      },
      "properties": {
        "name": "Mikuku",
        "realm_idx": 151,
        "order": "The Order of Protection",
        "resources": ["Coal", "Stone"]
      }
    },
    {
      "type": "Feature",
      "geometry": {
        "type": "Point",
        "coordinates": [125.5676, 4.4052]
      },
      "properties": {
        "name": "I-tek-Sil",
        "realm_idx": 152,
        "order": "The Order of Protection",
        "resources": ["Hartwood", "Wood"]
      }
    },
    {
      "type": "Feature",
      "geometry": {
        "type": "Point",
        "coordinates": [-116.88, 13.2003]
      },
      "properties": {
        "name": "Nongkhunkang",
        "realm_idx": 153,
        "order": "The Order of Detection",
        "resources": ["Stone", "Wood", "Copper"]
      }
    },
    {
      "type": "Feature",
      "geometry": {
        "type": "Point",
        "coordinates": [96.2471, 51.28]
      },
      "properties": {
        "name": "Upahupum",
        "realm_idx": 154,
        "order": "The Order of Enlightenment",
        "resources": ["Wood", "Silver", "Copper"]
      }
    },
    {
      "type": "Feature",
      "geometry": {
        "type": "Point",
        "coordinates": [-104.28, -5.0997]
      },
      "properties": {
        "name": "T\u00eam\u00eal-Tumtut",
        "realm_idx": 155,
        "order": "The Order of Reflection",
        "resources": ["Wood", "Coal", "Obsidian"]
      }
    },
    {
      "type": "Feature",
      "geometry": {
        "type": "Point",
        "coordinates": [96.0471, -12.02]
      },
      "properties": {
        "name": "Gisik",
        "realm_idx": 156,
        "order": "The Order of Perfection",
        "resources": ["Coal", "Obsidian", "Wood"]
      }
    },
    {
      "type": "Feature",
      "geometry": {
        "type": "Point",
        "coordinates": [-11.6529, -22.72]
      },
      "properties": {
        "name": "Syushstes",
        "realm_idx": 157,
        "order": "The Order of Power",
        "resources": ["Coal", "Silver", "Gold", "Hartwood", "Wood", "Cold Iron"]
      }
    },
    {
      "type": "Feature",
      "geometry": {
        "type": "Point",
        "coordinates": [-11.9529, 36.38]
      },
      "properties": {
        "name": "Ikhikqiloik",
        "realm_idx": 158,
        "order": "The Order of Titans",
        "resources": ["Copper"]
      }
    },
    {
      "type": "Feature",
      "geometry": {
        "type": "Point",
        "coordinates": [-74.6801, -14.6996]
      },
      "properties": {
        "name": "Zhezhi",
        "realm_idx": 159,
        "order": "The Order of Rage",
        "resources": ["Sapphire", "Coal", "Silver"]
      }
    },
    {
      "type": "Feature",
      "geometry": {
        "type": "Point",
        "coordinates": [-37.9527, 52.5801]
      },
      "properties": {
        "name": "Snimstwn",
        "realm_idx": 160,
        "order": "The Order of the Twins",
        "resources": ["Wood"]
      }
    },
    {
      "type": "Feature",
      "geometry": {
        "type": "Point",
        "coordinates": [27.7471, -39.22]
      },
      "properties": {
        "name": "Kesiselm El",
        "realm_idx": 161,
        "order": "The Order of Giants",
        "resources": ["Copper", "Wood", "Obsidian", "Stone"]
      }
    },
    {
      "type": "Feature",
      "geometry": {
        "type": "Point",
        "coordinates": [111.9471, 31.48]
      },
      "properties": {
        "name": "Em \u2018u",
        "realm_idx": 162,
        "order": "The Order of Enlightenment",
        "resources": ["Stone"]
      }
    },
    {
      "type": "Feature",
      "geometry": {
        "type": "Point",
        "coordinates": [-63.78, -42.4996]
      },
      "properties": {
        "name": "Poimmaeppeu",
        "realm_idx": 163,
        "order": "The Order of the Fox",
        "resources": ["Coal", "Stone", "Obsidian", "Copper", "Wood"]
      }
    },
    {
      "type": "Feature",
      "geometry": {
        "type": "Point",
        "coordinates": [-117.68, -33.8997]
      },
      "properties": {
        "name": "Sn\u00fcngs\u00fcng",
        "realm_idx": 164,
        "order": "The Order of Detection",
        "resources": ["Wood"]
      }
    },
    {
      "type": "Feature",
      "geometry": {
        "type": "Point",
        "coordinates": [115.4471, 30.58]
      },
      "properties": {
        "name": "Ghusschum",
        "realm_idx": 165,
        "order": "The Order of Enlightenment",
        "resources": ["Wood", "Obsidian", "Deep Crystal"]
      }
    },
    {
      "type": "Feature",
      "geometry": {
        "type": "Point",
        "coordinates": [3.1471, -12.82]
      },
      "properties": {
        "name": "Nguillair",
        "realm_idx": 166,
        "order": "The Order of Power",
        "resources": ["Copper", "Wood", "Silver"]
      }
    },
    {
      "type": "Feature",
      "geometry": {
        "type": "Point",
        "coordinates": [-107.4524, 44.9418]
      },
      "properties": {
        "name": "Tathamke",
        "realm_idx": 167,
        "order": "The Order of Anger",
        "resources": ["Coal", "Hartwood", "Copper", "Gold"]
      }
    },
    {
      "type": "Feature",
      "geometry": {
        "type": "Point",
        "coordinates": [-63.1529, 44.68]
      },
      "properties": {
        "name": "\u0160ommun",
        "realm_idx": 168,
        "order": "The Order of Fury",
        "resources": ["Stone", "Wood", "Gold", "Twilight Quartz"]
      }
    },
    {
      "type": "Feature",
      "geometry": {
        "type": "Point",
        "coordinates": [87.4471, 16.88]
      },
      "properties": {
        "name": "Tuptet",
        "realm_idx": 169,
        "order": "The Order of Brilliance",
        "resources": ["Obsidian", "Coal", "Gold", "Cold Iron", "Copper"]
      }
    },
    {
      "type": "Feature",
      "geometry": {
        "type": "Point",
        "coordinates": [-115.08, 12.2003]
      },
      "properties": {
        "name": "shut Ugshum",
        "realm_idx": 170,
        "order": "The Order of Detection",
        "resources": ["Stone", "Copper", "Obsidian", "Wood", "Sapphire"]
      }
    },
    {
      "type": "Feature",
      "geometry": {
        "type": "Point",
        "coordinates": [121.4736, -17.4134]
      },
      "properties": {
        "name": "Puknuk",
        "realm_idx": 171,
        "order": "The Order of Protection",
        "resources": ["Stone"]
      }
    },
    {
      "type": "Feature",
      "geometry": {
        "type": "Point",
        "coordinates": [112.247, -1.92]
      },
      "properties": {
        "name": "I\u00e9 Tete\u00e9s\u00edku",
        "realm_idx": 172,
        "order": "The Order of Perfection",
        "resources": ["Silver"]
      }
    },
    {
      "type": "Feature",
      "geometry": {
        "type": "Point",
        "coordinates": [60.5471, 6.88]
      },
      "properties": {
        "name": "O\u2018inew",
        "realm_idx": 173,
        "order": "The Order of Brilliance",
        "resources": ["Silver", "Stone", "Hartwood", "Copper"]
      }
    },
    {
      "type": "Feature",
      "geometry": {
        "type": "Point",
        "coordinates": [-59.8801, -21.9996]
      },
      "properties": {
        "name": "Niolaekae",
        "realm_idx": 174,
        "order": "The Order of the Twins",
        "resources": ["Silver", "Copper", "Hartwood", "Coal"]
      }
    },
    {
      "type": "Feature",
      "geometry": {
        "type": "Point",
        "coordinates": [21.4471, 53.88]
      },
      "properties": {
        "name": "Nenshnan",
        "realm_idx": 175,
        "order": "The Order of Titans",
        "resources": ["Copper", "Wood", "Obsidian"]
      }
    },
    {
      "type": "Feature",
      "geometry": {
        "type": "Point",
        "coordinates": [94.2471, 54.88]
      },
      "properties": {
        "name": "S\u00e1ng\u00fam \u00c1ig\u00fai",
        "realm_idx": 176,
        "order": "The Order of Enlightenment",
        "resources": ["Copper", "Coal", "Wood", "Stone"]
      }
    },
    {
      "type": "Feature",
      "geometry": {
        "type": "Point",
        "coordinates": [-52.18, -51.4996]
      },
      "properties": {
        "name": "Tizgizgezmiz",
        "realm_idx": 177,
        "order": "The Order of the Fox",
        "resources": ["Wood", "Obsidian", "Stone"]
      }
    },
    {
      "type": "Feature",
      "geometry": {
        "type": "Point",
        "coordinates": [29.6471, 11.18]
      },
      "properties": {
        "name": "Tuknek",
        "realm_idx": 178,
        "order": "The Order of Titans",
        "resources": ["Silver"]
      }
    },
    {
      "type": "Feature",
      "geometry": {
        "type": "Point",
        "coordinates": [-45.2529, 5.88]
      },
      "properties": {
        "name": "Nulmop",
        "realm_idx": 179,
        "order": "The Order of Vitriol",
        "resources": ["Wood", "Hartwood", "Obsidian", "Stone", "Coal"]
      }
    },
    {
      "type": "Feature",
      "geometry": {
        "type": "Point",
        "coordinates": [-64.2431, 38.5125]
      },
      "properties": {
        "name": "Lonoskak",
        "realm_idx": 180,
        "order": "The Order of Fury",
        "resources": ["Stone", "Coal"]
      }
    },
    {
      "type": "Feature",
      "geometry": {
        "type": "Point",
        "coordinates": [-9.0529, 29.78]
      },
      "properties": {
        "name": "Tus Luksus",
        "realm_idx": 181,
        "order": "The Order of Vitriol",
        "resources": ["Coal", "Wood", "Stone", "Ironwood"]
      }
    },
    {
      "type": "Feature",
      "geometry": {
        "type": "Point",
        "coordinates": [31.5471, 14.78]
      },
      "properties": {
        "name": "sun Shmam",
        "realm_idx": 182,
        "order": "The Order of Titans",
        "resources": ["Cold Iron", "Coal", "Stone"]
      }
    },
    {
      "type": "Feature",
      "geometry": {
        "type": "Point",
        "coordinates": [-97.2801, 47.2004]
      },
      "properties": {
        "name": "Klunklinpun",
        "realm_idx": 183,
        "order": "The Order of Anger",
        "resources": ["Wood", "Coal"]
      }
    },
    {
      "type": "Feature",
      "geometry": {
        "type": "Point",
        "coordinates": [4.4471, 0.68]
      },
      "properties": {
        "name": "\u00dcn\u00fckuh\u00fckom",
        "realm_idx": 184,
        "order": "The Order of Power",
        "resources": ["Copper", "Wood", "Coal"]
      }
    },
    {
      "type": "Feature",
      "geometry": {
        "type": "Point",
        "coordinates": [117.8471, 17.48]
      },
      "properties": {
        "name": "Kulususyn",
        "realm_idx": 185,
        "order": "The Order of Protection",
        "resources": ["Coal", "Stone", "Silver", "Copper", "Cold Iron"]
      }
    },
    {
      "type": "Feature",
      "geometry": {
        "type": "Point",
        "coordinates": [-72.2801, -11.9996]
      },
      "properties": {
        "name": "Lew Yiw",
        "realm_idx": 186,
        "order": "The Order of Rage",
        "resources": ["Wood"]
      }
    },
    {
      "type": "Feature",
      "geometry": {
        "type": "Point",
        "coordinates": [-122.68, -10.9997]
      },
      "properties": {
        "name": "Tolpel",
        "realm_idx": 187,
        "order": "The Order of Detection",
        "resources": ["Cold Iron", "Stone", "Wood"]
      }
    },
    {
      "type": "Feature",
      "geometry": {
        "type": "Point",
        "coordinates": [-52.48, -51.5996]
      },
      "properties": {
        "name": "Ozhbub",
        "realm_idx": 188,
        "order": "The Order of the Fox",
        "resources": ["Stone", "Coal", "Wood", "Copper"]
      }
    },
    {
      "type": "Feature",
      "geometry": {
        "type": "Point",
        "coordinates": [-53.38, -48.2997]
      },
      "properties": {
        "name": "Iszhekulari",
        "realm_idx": 189,
        "order": "The Order of the Fox",
        "resources": ["Ignium"]
      }
    },
    {
      "type": "Feature",
      "geometry": {
        "type": "Point",
        "coordinates": [114.2471, 11.08]
      },
      "properties": {
        "name": "Tils\u00f4l",
        "realm_idx": 190,
        "order": "The Order of Protection",
        "resources": ["Copper"]
      }
    },
    {
      "type": "Feature",
      "geometry": {
        "type": "Point",
        "coordinates": [-0.7529, 25.78]
      },
      "properties": {
        "name": "Naunsmansmum",
        "realm_idx": 191,
        "order": "The Order of Vitriol",
        "resources": ["Copper", "Wood", "Cold Iron", "Silver"]
      }
    },
    {
      "type": "Feature",
      "geometry": {
        "type": "Point",
        "coordinates": [-30.4529, 24.78]
      },
      "properties": {
        "name": "Uhomuhomam",
        "realm_idx": 192,
        "order": "The Order of Vitriol",
        "resources": ["Stone"]
      }
    },
    {
      "type": "Feature",
      "geometry": {
        "type": "Point",
        "coordinates": [-129.58, 0.4003]
      },
      "properties": {
        "name": "Kuimmian",
        "realm_idx": 193,
        "order": "The Order of Detection",
        "resources": ["Coal", "Obsidian", "Wood"]
      }
    },
    {
      "type": "Feature",
      "geometry": {
        "type": "Point",
        "coordinates": [125.1471, 14.28]
      },
      "properties": {
        "name": "S\u00fanin",
        "realm_idx": 194,
        "order": "The Order of Protection",
        "resources": ["Coal", "Wood"]
      }
    },
    {
      "type": "Feature",
      "geometry": {
        "type": "Point",
        "coordinates": [121.9359, 10.0273]
      },
      "properties": {
        "name": "Muzhden",
        "realm_idx": 195,
        "order": "The Order of Protection",
        "resources": ["Ironwood", "Coal", "Wood"]
      }
    },
    {
      "type": "Feature",
      "geometry": {
        "type": "Point",
        "coordinates": [78.2471, 19.98]
      },
      "properties": {
        "name": "Uketap Uhup",
        "realm_idx": 196,
        "order": "The Order of Brilliance",
        "resources": ["Obsidian", "Silver"]
      }
    },
    {
      "type": "Feature",
      "geometry": {
        "type": "Point",
        "coordinates": [-63.3801, 6.3004]
      },
      "properties": {
        "name": "Imuwogugog",
        "realm_idx": 197,
        "order": "The Order of Rage",
        "resources": ["Stone", "Gold", "Ignium", "Ironwood", "Coal"]
      }
    },
    {
      "type": "Feature",
      "geometry": {
        "type": "Point",
        "coordinates": [-70.0801, 46.4004]
      },
      "properties": {
        "name": "Luuslumsluum",
        "realm_idx": 198,
        "order": "The Order of Anger",
        "resources": ["Cold Iron"]
      }
    },
    {
      "type": "Feature",
      "geometry": {
        "type": "Point",
        "coordinates": [112.2471, 9.58]
      },
      "properties": {
        "name": "sun Damken",
        "realm_idx": 199,
        "order": "The Order of Protection",
        "resources": ["Obsidian", "Stone", "Hartwood"]
      }
    },
    {
      "type": "Feature",
      "geometry": {
        "type": "Point",
        "coordinates": [-81.0801, 50.8004]
      },
      "properties": {
        "name": "Aami\u017e",
        "realm_idx": 200,
        "order": "The Order of Anger",
        "resources": ["Coal", "Obsidian"]
      }
    },
    {
      "type": "Feature",
      "geometry": {
        "type": "Point",
        "coordinates": [87.8471, 16.88]
      },
      "properties": {
        "name": "Amlutlush",
        "realm_idx": 201,
        "order": "The Order of Brilliance",
        "resources": ["Coal", "Obsidian"]
      }
    },
    {
      "type": "Feature",
      "geometry": {
        "type": "Point",
        "coordinates": [-87.2801, -48.0996]
      },
      "properties": {
        "name": "T\u00e1gziszistit",
        "realm_idx": 202,
        "order": "The Order of the Twins",
        "resources": [
          "Cold Iron",
          "Wood",
          "True Ice",
          "Coal",
          "Gold",
          "Ironwood",
          "Hartwood"
        ]
      }
    },
    {
      "type": "Feature",
      "geometry": {
        "type": "Point",
        "coordinates": [-74.0801, 28.9004]
      },
      "properties": {
        "name": "Shollur",
        "realm_idx": 203,
        "order": "The Order of Rage",
        "resources": ["Coal", "Silver", "Wood", "Copper", "Sapphire", "Stone"]
      }
    },
    {
      "type": "Feature",
      "geometry": {
        "type": "Point",
        "coordinates": [47.9471, -40.82]
      },
      "properties": {
        "name": "Roshnok",
        "realm_idx": 204,
        "order": "The Order of Giants",
        "resources": ["Gold", "Stone", "Wood", "Coal"]
      }
    },
    {
      "type": "Feature",
      "geometry": {
        "type": "Point",
        "coordinates": [-57.4529, 55.58]
      },
      "properties": {
        "name": "Erkdornmur",
        "realm_idx": 205,
        "order": "The Order of Fury",
        "resources": ["Wood", "Cold Iron"]
      }
    },
    {
      "type": "Feature",
      "geometry": {
        "type": "Point",
        "coordinates": [-64.88, 29.8003]
      },
      "properties": {
        "name": "Izh\u00e1zh\u00e1sizh",
        "realm_idx": 206,
        "order": "The Order of Fury",
        "resources": ["Stone", "Copper", "Coal"]
      }
    },
    {
      "type": "Feature",
      "geometry": {
        "type": "Point",
        "coordinates": [-51.38, 20.5003]
      },
      "properties": {
        "name": "ep Akipetut",
        "realm_idx": 207,
        "order": "The Order of Fury",
        "resources": ["Silver", "Coal", "Wood", "Obsidian"]
      }
    },
    {
      "type": "Feature",
      "geometry": {
        "type": "Point",
        "coordinates": [-55.5801, -26.4996]
      },
      "properties": {
        "name": "Wamwammunkun",
        "realm_idx": 208,
        "order": "The Order of the Twins",
        "resources": ["Stone", "Copper", "Silver"]
      }
    },
    {
      "type": "Feature",
      "geometry": {
        "type": "Point",
        "coordinates": [-116.68, 9.6003]
      },
      "properties": {
        "name": "Tonnen",
        "realm_idx": 209,
        "order": "The Order of Detection",
        "resources": ["Stone", "Cold Iron", "Wood"]
      }
    },
    {
      "type": "Feature",
      "geometry": {
        "type": "Point",
        "coordinates": [-116.08, -33.9997]
      },
      "properties": {
        "name": "Nla\u2018wul",
        "realm_idx": 210,
        "order": "The Order of Detection",
        "resources": ["Obsidian"]
      }
    },
    {
      "type": "Feature",
      "geometry": {
        "type": "Point",
        "coordinates": [-54.78, -39.4997]
      },
      "properties": {
        "name": "Srigh",
        "realm_idx": 211,
        "order": "The Order of the Fox",
        "resources": ["Stone", "Wood", "True Ice"]
      }
    },
    {
      "type": "Feature",
      "geometry": {
        "type": "Point",
        "coordinates": [-91.6801, -33.0996]
      },
      "properties": {
        "name": "B\u00edghk\u00edk",
        "realm_idx": 212,
        "order": "The Order of the Twins",
        "resources": ["Copper", "Coal"]
      }
    },
    {
      "type": "Feature",
      "geometry": {
        "type": "Point",
        "coordinates": [-78.8801, 44.0004]
      },
      "properties": {
        "name": "Nainuonuopau",
        "realm_idx": 213,
        "order": "The Order of Anger",
        "resources": ["Wood", "Coal", "Copper"]
      }
    },
    {
      "type": "Feature",
      "geometry": {
        "type": "Point",
        "coordinates": [77.3471, -11.92]
      },
      "properties": {
        "name": "Sm\u00e1kw\u00e1\u2018",
        "realm_idx": 214,
        "order": "The Order of Perfection",
        "resources": ["Stone", "Wood"]
      }
    },
    {
      "type": "Feature",
      "geometry": {
        "type": "Point",
        "coordinates": [7.2471, 4.38]
      },
      "properties": {
        "name": "Tikke\u00fatkit",
        "realm_idx": 215,
        "order": "The Order of Power",
        "resources": ["Ironwood"]
      }
    },
    {
      "type": "Feature",
      "geometry": {
        "type": "Point",
        "coordinates": [21.1471, 48.18]
      },
      "properties": {
        "name": "Giz Liz",
        "realm_idx": 216,
        "order": "The Order of Titans",
        "resources": ["Deep Crystal", "Copper", "Stone", "Coal", "Wood"]
      }
    },
    {
      "type": "Feature",
      "geometry": {
        "type": "Point",
        "coordinates": [124.3039, 3.7715]
      },
      "properties": {
        "name": "Lewkkekpiiw",
        "realm_idx": 217,
        "order": "The Order of Protection",
        "resources": ["Coal", "Wood", "Copper", "Cold Iron"]
      }
    },
    {
      "type": "Feature",
      "geometry": {
        "type": "Point",
        "coordinates": [8.3471, 13.98]
      },
      "properties": {
        "name": "Samikmik",
        "realm_idx": 218,
        "order": "The Order of Titans",
        "resources": ["Coal", "Stone", "Ironwood", "Copper"]
      }
    },
    {
      "type": "Feature",
      "geometry": {
        "type": "Point",
        "coordinates": [77.0471, -22.22]
      },
      "properties": {
        "name": "Slazhgux",
        "realm_idx": 219,
        "order": "The Order of Perfection",
        "resources": ["Wood"]
      }
    },
    {
      "type": "Feature",
      "geometry": {
        "type": "Point",
        "coordinates": [-51.5529, 54.48]
      },
      "properties": {
        "name": "Shohih",
        "realm_idx": 220,
        "order": "The Order of Fury",
        "resources": ["Coal", "Wood", "Obsidian", "Copper", "Silver"]
      }
    },
    {
      "type": "Feature",
      "geometry": {
        "type": "Point",
        "coordinates": [50.7471, -19.32]
      },
      "properties": {
        "name": "Chosol",
        "realm_idx": 221,
        "order": "The Order of Giants",
        "resources": ["Stone", "Silver", "Twilight Quartz", "Wood", "Gold"]
      }
    },
    {
      "type": "Feature",
      "geometry": {
        "type": "Point",
        "coordinates": [-11.9529, -24.72]
      },
      "properties": {
        "name": "Snossn\u00fab",
        "realm_idx": 222,
        "order": "The Order of Power",
        "resources": [
          "Hartwood",
          "Coal",
          "Copper",
          "Cold Iron",
          "Stone",
          "Ignium"
        ]
      }
    },
    {
      "type": "Feature",
      "geometry": {
        "type": "Point",
        "coordinates": [26.0471, -32.12]
      },
      "properties": {
        "name": "Muzhsush",
        "realm_idx": 223,
        "order": "The Order of Giants",
        "resources": ["Ironwood", "Sapphire", "Copper", "Stone"]
      }
    },
    {
      "type": "Feature",
      "geometry": {
        "type": "Point",
        "coordinates": [-62.5529, 44.88]
      },
      "properties": {
        "name": "Titnletnlit",
        "realm_idx": 224,
        "order": "The Order of Fury",
        "resources": ["Coal", "Wood"]
      }
    },
    {
      "type": "Feature",
      "geometry": {
        "type": "Point",
        "coordinates": [-33.4529, 8.88]
      },
      "properties": {
        "name": "Sonmlwmljam",
        "realm_idx": 225,
        "order": "The Order of Vitriol",
        "resources": ["Gold", "Coal"]
      }
    },
    {
      "type": "Feature",
      "geometry": {
        "type": "Point",
        "coordinates": [-73.4801, -14.0996]
      },
      "properties": {
        "name": "ak Inop",
        "realm_idx": 226,
        "order": "The Order of Rage",
        "resources": ["Stone", "Coal", "Copper", "Wood", "Silver"]
      }
    },
    {
      "type": "Feature",
      "geometry": {
        "type": "Point",
        "coordinates": [56.8471, 39.28]
      },
      "properties": {
        "name": "Bulxbar",
        "realm_idx": 227,
        "order": "The Order of Skill",
        "resources": ["Gold", "Obsidian", "Stone"]
      }
    },
    {
      "type": "Feature",
      "geometry": {
        "type": "Point",
        "coordinates": [15.5471, 15.28]
      },
      "properties": {
        "name": "lin Minnan",
        "realm_idx": 228,
        "order": "The Order of Titans",
        "resources": ["Coal"]
      }
    },
    {
      "type": "Feature",
      "geometry": {
        "type": "Point",
        "coordinates": [94.6471, 16.28]
      },
      "properties": {
        "name": "Yalyng\u00e2",
        "realm_idx": 229,
        "order": "The Order of Brilliance",
        "resources": ["Copper"]
      }
    },
    {
      "type": "Feature",
      "geometry": {
        "type": "Point",
        "coordinates": [64.6471, 12.68]
      },
      "properties": {
        "name": "Kenteh",
        "realm_idx": 230,
        "order": "The Order of Skill",
        "resources": ["Ironwood"]
      }
    },
    {
      "type": "Feature",
      "geometry": {
        "type": "Point",
        "coordinates": [89.8471, 1.48]
      },
      "properties": {
        "name": "Lokyoup",
        "realm_idx": 231,
        "order": "The Order of Brilliance",
        "resources": ["Copper", "Gold", "Ruby", "Silver"]
      }
    },
    {
      "type": "Feature",
      "geometry": {
        "type": "Point",
        "coordinates": [-3.3529, 19.98]
      },
      "properties": {
        "name": "Keslek",
        "realm_idx": 232,
        "order": "The Order of Vitriol",
        "resources": ["Wood"]
      }
    },
    {
      "type": "Feature",
      "geometry": {
        "type": "Point",
        "coordinates": [-115.28, -32.1997]
      },
      "properties": {
        "name": "T\u00e1t\u00edlisum",
        "realm_idx": 233,
        "order": "The Order of Reflection",
        "resources": ["Stone", "Ignium", "Copper", "Wood", "Ironwood"]
      }
    },
    {
      "type": "Feature",
      "geometry": {
        "type": "Point",
        "coordinates": [-55.58, -34.3997]
      },
      "properties": {
        "name": "Slunnlin",
        "realm_idx": 234,
        "order": "The Order of the Fox",
        "resources": ["Obsidian", "Wood"]
      }
    },
    {
      "type": "Feature",
      "geometry": {
        "type": "Point",
        "coordinates": [-115.78, 39.9003]
      },
      "properties": {
        "name": "Gunungqun",
        "realm_idx": 235,
        "order": "The Order of Reflection",
        "resources": ["Hartwood", "Copper"]
      }
    },
    {
      "type": "Feature",
      "geometry": {
        "type": "Point",
        "coordinates": [57.2471, 20.48]
      },
      "properties": {
        "name": "Varing",
        "realm_idx": 236,
        "order": "The Order of Skill",
        "resources": ["Ironwood", "Wood", "Deep Crystal"]
      }
    },
    {
      "type": "Feature",
      "geometry": {
        "type": "Point",
        "coordinates": [46.5471, -16.32]
      },
      "properties": {
        "name": "Kuozhuad",
        "realm_idx": 237,
        "order": "The Order of Giants",
        "resources": ["Gold"]
      }
    },
    {
      "type": "Feature",
      "geometry": {
        "type": "Point",
        "coordinates": [44.5471, -37.02]
      },
      "properties": {
        "name": "Jans\u00edn",
        "realm_idx": 238,
        "order": "The Order of Giants",
        "resources": ["Wood", "Coal", "Stone"]
      }
    },
    {
      "type": "Feature",
      "geometry": {
        "type": "Point",
        "coordinates": [-66.3801, -18.6996]
      },
      "properties": {
        "name": "Zumzin",
        "realm_idx": 239,
        "order": "The Order of the Twins",
        "resources": ["Silver", "Hartwood", "Wood", "Ironwood"]
      }
    },
    {
      "type": "Feature",
      "geometry": {
        "type": "Point",
        "coordinates": [-84.5801, -16.1996]
      },
      "properties": {
        "name": "Qaunnauq",
        "realm_idx": 240,
        "order": "The Order of Rage",
        "resources": ["Hartwood", "Coal", "Wood"]
      }
    },
    {
      "type": "Feature",
      "geometry": {
        "type": "Point",
        "coordinates": [-82.7108, -13.7354]
      },
      "properties": {
        "name": "Tetezo",
        "realm_idx": 241,
        "order": "The Order of Rage",
        "resources": ["Copper", "True Ice", "Ruby"]
      }
    },
    {
      "type": "Feature",
      "geometry": {
        "type": "Point",
        "coordinates": [-60.58, -55.4996]
      },
      "properties": {
        "name": "Udidir",
        "realm_idx": 242,
        "order": "The Order of the Fox",
        "resources": ["Obsidian", "Stone", "Wood", "Copper", "Coal", "Ironwood"]
      }
    },
    {
      "type": "Feature",
      "geometry": {
        "type": "Point",
        "coordinates": [114.5471, 42.28]
      },
      "properties": {
        "name": "T\u00faaptiukt\u00faap",
        "realm_idx": 243,
        "order": "The Order of Enlightenment",
        "resources": ["Sapphire", "Stone", "Obsidian", "Silver", "Gold"]
      }
    },
    {
      "type": "Feature",
      "geometry": {
        "type": "Point",
        "coordinates": [87.9471, 3.88]
      },
      "properties": {
        "name": "Nlat-M\u00fatmlum",
        "realm_idx": 244,
        "order": "The Order of Brilliance",
        "resources": ["Gold", "Copper", "Wood", "Sapphire"]
      }
    },
    {
      "type": "Feature",
      "geometry": {
        "type": "Point",
        "coordinates": [38.1471, -0.92]
      },
      "properties": {
        "name": "Vig Ping",
        "realm_idx": 245,
        "order": "The Order of Giants",
        "resources": ["Coal", "Sapphire", "Wood"]
      }
    },
    {
      "type": "Feature",
      "geometry": {
        "type": "Point",
        "coordinates": [-8.3529, -27.52]
      },
      "properties": {
        "name": "Ipzuw",
        "realm_idx": 246,
        "order": "The Order of Power",
        "resources": ["Copper", "Wood", "Stone"]
      }
    },
    {
      "type": "Feature",
      "geometry": {
        "type": "Point",
        "coordinates": [86.1471, 18.08]
      },
      "properties": {
        "name": "\u00catetpitak",
        "realm_idx": 247,
        "order": "The Order of Brilliance",
        "resources": ["Stone", "Cold Iron", "Silver"]
      }
    },
    {
      "type": "Feature",
      "geometry": {
        "type": "Point",
        "coordinates": [61.4471, 17.28]
      },
      "properties": {
        "name": "\u00cfr\u00efr\u00eflm\u00efr",
        "realm_idx": 248,
        "order": "The Order of Skill",
        "resources": ["Ruby", "Cold Iron", "Wood", "Stone", "Copper"]
      }
    },
    {
      "type": "Feature",
      "geometry": {
        "type": "Point",
        "coordinates": [-57.6529, 46.18]
      },
      "properties": {
        "name": "Vuiryai",
        "realm_idx": 249,
        "order": "The Order of Fury",
        "resources": ["Stone", "Wood"]
      }
    },
    {
      "type": "Feature",
      "geometry": {
        "type": "Point",
        "coordinates": [-111.78, 35.9003]
      },
      "properties": {
        "name": "Nunkonlam",
        "realm_idx": 250,
        "order": "The Order of Reflection",
        "resources": ["Wood"]
      }
    },
    {
      "type": "Feature",
      "geometry": {
        "type": "Point",
        "coordinates": [47.6471, 6.08]
      },
      "properties": {
        "name": "Son Nulunmun",
        "realm_idx": 251,
        "order": "The Order of Brilliance",
        "resources": ["Stone", "Obsidian"]
      }
    },
    {
      "type": "Feature",
      "geometry": {
        "type": "Point",
        "coordinates": [119.7367, 10.8385]
      },
      "properties": {
        "name": "Atkrukrotkeh",
        "realm_idx": 252,
        "order": "The Order of Protection",
        "resources": ["Coal", "Copper", "Alchemical Silver"]
      }
    },
    {
      "type": "Feature",
      "geometry": {
        "type": "Point",
        "coordinates": [-63.38, -59.5996]
      },
      "properties": {
        "name": "Upimim",
        "realm_idx": 253,
        "order": "The Order of the Fox",
        "resources": ["Coal", "Copper", "Gold", "Wood"]
      }
    },
    {
      "type": "Feature",
      "geometry": {
        "type": "Point",
        "coordinates": [-126.48, 4.3003]
      },
      "properties": {
        "name": "Schgontamrum",
        "realm_idx": 254,
        "order": "The Order of Detection",
        "resources": ["Copper", "Silver", "Wood"]
      }
    },
    {
      "type": "Feature",
      "geometry": {
        "type": "Point",
        "coordinates": [-56.0527, -51.1606]
      },
      "properties": {
        "name": "Morszizsgum",
        "realm_idx": 255,
        "order": "The Order of the Fox",
        "resources": ["Stone", "Wood"]
      }
    },
    {
      "type": "Feature",
      "geometry": {
        "type": "Point",
        "coordinates": [-53.18, -50.8996]
      },
      "properties": {
        "name": "L\u00e4nm\u00e4mp\u00e4n",
        "realm_idx": 256,
        "order": "The Order of the Fox",
        "resources": ["Stone", "Wood"]
      }
    },
    {
      "type": "Feature",
      "geometry": {
        "type": "Point",
        "coordinates": [-120.18, 22.6003]
      },
      "properties": {
        "name": "K\u00f6zhzuib",
        "realm_idx": 257,
        "order": "The Order of Detection",
        "resources": ["Wood", "Coal"]
      }
    },
    {
      "type": "Feature",
      "geometry": {
        "type": "Point",
        "coordinates": [63.4732, -20.1304]
      },
      "properties": {
        "name": "Kotimlishan",
        "realm_idx": 258,
        "order": "The Order of Perfection",
        "resources": ["Stone", "Alchemical Silver", "Gold"]
      }
    },
    {
      "type": "Feature",
      "geometry": {
        "type": "Point",
        "coordinates": [87.0304, -20.2652]
      },
      "properties": {
        "name": "Lemem Eme",
        "realm_idx": 259,
        "order": "The Order of Perfection",
        "resources": ["Wood", "Coal", "Obsidian"]
      }
    },
    {
      "type": "Feature",
      "geometry": {
        "type": "Point",
        "coordinates": [-35.8529, 10.58]
      },
      "properties": {
        "name": "Animum Inom",
        "realm_idx": 260,
        "order": "The Order of Vitriol",
        "resources": ["Coal", "Wood"]
      }
    },
    {
      "type": "Feature",
      "geometry": {
        "type": "Point",
        "coordinates": [100.2471, 6.28]
      },
      "properties": {
        "name": "Koho mu Huho",
        "realm_idx": 261,
        "order": "The Order of Protection",
        "resources": ["Copper"]
      }
    },
    {
      "type": "Feature",
      "geometry": {
        "type": "Point",
        "coordinates": [-33.8529, 30.78]
      },
      "properties": {
        "name": "L\u00e4ngmonkong",
        "realm_idx": 262,
        "order": "The Order of Vitriol",
        "resources": ["Diamonds", "Obsidian", "Copper"]
      }
    },
    {
      "type": "Feature",
      "geometry": {
        "type": "Point",
        "coordinates": [74.4471, -25.62]
      },
      "properties": {
        "name": "Amenqan",
        "realm_idx": 263,
        "order": "The Order of Perfection",
        "resources": ["Stone", "Coal", "Ironwood", "Wood"]
      }
    },
    {
      "type": "Feature",
      "geometry": {
        "type": "Point",
        "coordinates": [26.0471, 56.18]
      },
      "properties": {
        "name": "Ilqlolury",
        "realm_idx": 264,
        "order": "The Order of Titans",
        "resources": ["Stone", "Gold", "True Ice", "Wood", "Ironwood"]
      }
    },
    {
      "type": "Feature",
      "geometry": {
        "type": "Point",
        "coordinates": [-102.3801, 19.9004]
      },
      "properties": {
        "name": "K\u00faanmup",
        "realm_idx": 265,
        "order": "The Order of Rage",
        "resources": ["Coal", "Hartwood"]
      }
    },
    {
      "type": "Feature",
      "geometry": {
        "type": "Point",
        "coordinates": [-87.2801, 24.4004]
      },
      "properties": {
        "name": "Azwy\u00f3zh",
        "realm_idx": 266,
        "order": "The Order of Rage",
        "resources": ["Silver", "Ironwood", "Stone"]
      }
    },
    {
      "type": "Feature",
      "geometry": {
        "type": "Point",
        "coordinates": [78.7471, 32.68]
      },
      "properties": {
        "name": "Miu Leit",
        "realm_idx": 267,
        "order": "The Order of Skill",
        "resources": ["Ethereal Silica", "Stone", "Obsidian"]
      }
    },
    {
      "type": "Feature",
      "geometry": {
        "type": "Point",
        "coordinates": [112.2333, 3.5503]
      },
      "properties": {
        "name": "My\u00edtmil Mak",
        "realm_idx": 268,
        "order": "The Order of Perfection",
        "resources": ["Stone", "Wood"]
      }
    },
    {
      "type": "Feature",
      "geometry": {
        "type": "Point",
        "coordinates": [86.6471, -0.72]
      },
      "properties": {
        "name": "Giozzom",
        "realm_idx": 269,
        "order": "The Order of Brilliance",
        "resources": ["Copper", "Stone", "Wood", "Obsidian", "Silver"]
      }
    },
    {
      "type": "Feature",
      "geometry": {
        "type": "Point",
        "coordinates": [40.2471, -12.42]
      },
      "properties": {
        "name": "Densdung",
        "realm_idx": 270,
        "order": "The Order of Giants",
        "resources": ["Coal", "Obsidian", "Copper", "Gold", "Wood"]
      }
    },
    {
      "type": "Feature",
      "geometry": {
        "type": "Point",
        "coordinates": [-25.0529, -0.92]
      },
      "properties": {
        "name": "K\u00f3ndjut",
        "realm_idx": 271,
        "order": "The Order of Vitriol",
        "resources": ["Wood", "Gold", "Silver", "Hartwood"]
      }
    },
    {
      "type": "Feature",
      "geometry": {
        "type": "Point",
        "coordinates": [-99.88, -38.9997]
      },
      "properties": {
        "name": "bu\u017e Zoltgi",
        "realm_idx": 272,
        "order": "The Order of Reflection",
        "resources": ["Diamonds", "Copper", "Coal", "Silver", "Ironwood"]
      }
    },
    {
      "type": "Feature",
      "geometry": {
        "type": "Point",
        "coordinates": [-67.1801, -2.6996]
      },
      "properties": {
        "name": "Gegkieg",
        "realm_idx": 273,
        "order": "The Order of Rage",
        "resources": ["Gold", "Wood", "Cold Iron", "Stone", "Silver"]
      }
    },
    {
      "type": "Feature",
      "geometry": {
        "type": "Point",
        "coordinates": [-97.1312, 37.4204]
      },
      "properties": {
        "name": "Pix Sezh",
        "realm_idx": 274,
        "order": "The Order of Anger",
        "resources": ["Coal"]
      }
    },
    {
      "type": "Feature",
      "geometry": {
        "type": "Point",
        "coordinates": [115.7978, 8.687]
      },
      "properties": {
        "name": "Hohmip",
        "realm_idx": 275,
        "order": "The Order of Protection",
        "resources": ["Copper", "Ironwood", "Wood", "Obsidian"]
      }
    },
    {
      "type": "Feature",
      "geometry": {
        "type": "Point",
        "coordinates": [-23.1529, 2.88]
      },
      "properties": {
        "name": "Dukitdun",
        "realm_idx": 276,
        "order": "The Order of Vitriol",
        "resources": ["Wood", "Twilight Quartz", "Stone", "Copper"]
      }
    },
    {
      "type": "Feature",
      "geometry": {
        "type": "Point",
        "coordinates": [116.5471, 44.78]
      },
      "properties": {
        "name": "Solon",
        "realm_idx": 277,
        "order": "The Order of Enlightenment",
        "resources": ["Copper", "Wood", "Ironwood"]
      }
    },
    {
      "type": "Feature",
      "geometry": {
        "type": "Point",
        "coordinates": [-123.78, 7.7003]
      },
      "properties": {
        "name": "Zaranu\u010du\u010d\u010dus",
        "realm_idx": 278,
        "order": "The Order of Detection",
        "resources": ["Obsidian", "Copper", "Wood"]
      }
    },
    {
      "type": "Feature",
      "geometry": {
        "type": "Point",
        "coordinates": [-39.7529, -11.22]
      },
      "properties": {
        "name": "Tessoltos",
        "realm_idx": 279,
        "order": "The Order of the Fox",
        "resources": ["Coal", "Obsidian", "Wood"]
      }
    },
    {
      "type": "Feature",
      "geometry": {
        "type": "Point",
        "coordinates": [-52.08, 19.7003]
      },
      "properties": {
        "name": "\u2018ikpishak",
        "realm_idx": 280,
        "order": "The Order of Fury",
        "resources": ["Coal", "Copper", "Stone", "Silver"]
      }
    },
    {
      "type": "Feature",
      "geometry": {
        "type": "Point",
        "coordinates": [-121.38, -24.6997]
      },
      "properties": {
        "name": "Enhin",
        "realm_idx": 281,
        "order": "The Order of Detection",
        "resources": ["Cold Iron", "Coal"]
      }
    },
    {
      "type": "Feature",
      "geometry": {
        "type": "Point",
        "coordinates": [62.5471, 23.28]
      },
      "properties": {
        "name": "Kraukpaud",
        "realm_idx": 282,
        "order": "The Order of Skill",
        "resources": ["Coal"]
      }
    },
    {
      "type": "Feature",
      "geometry": {
        "type": "Point",
        "coordinates": [-40.9529, -11.82]
      },
      "properties": {
        "name": "Slak\u2018ukpuk",
        "realm_idx": 283,
        "order": "The Order of the Fox",
        "resources": ["Coal"]
      }
    },
    {
      "type": "Feature",
      "geometry": {
        "type": "Point",
        "coordinates": [113.3747, -17.8757]
      },
      "properties": {
        "name": "Stchetchszid",
        "realm_idx": 284,
        "order": "The Order of Protection",
        "resources": ["Coal", "Wood", "Silver", "Copper", "Obsidian"]
      }
    },
    {
      "type": "Feature",
      "geometry": {
        "type": "Point",
        "coordinates": [-108.08, -8.1997]
      },
      "properties": {
        "name": "Nuhnekmuhhok",
        "realm_idx": 285,
        "order": "The Order of Reflection",
        "resources": ["Coal", "Copper", "Wood", "Stone"]
      }
    },
    {
      "type": "Feature",
      "geometry": {
        "type": "Point",
        "coordinates": [-63.58, -43.2996]
      },
      "properties": {
        "name": "Osyolyolokos",
        "realm_idx": 286,
        "order": "The Order of the Fox",
        "resources": [
          "Silver",
          "Obsidian",
          "Cold Iron",
          "Copper",
          "Coal",
          "Wood"
        ]
      }
    },
    {
      "type": "Feature",
      "geometry": {
        "type": "Point",
        "coordinates": [-91.4801, -56.0996]
      },
      "properties": {
        "name": "U\u2018unun",
        "realm_idx": 287,
        "order": "The Order of the Twins",
        "resources": ["Wood", "Coal", "Copper"]
      }
    },
    {
      "type": "Feature",
      "geometry": {
        "type": "Point",
        "coordinates": [73.7471, 52.08]
      },
      "properties": {
        "name": "O\u00fclkun",
        "realm_idx": 288,
        "order": "The Order of Skill",
        "resources": ["Hartwood", "Wood", "Copper", "Stone"]
      }
    },
    {
      "type": "Feature",
      "geometry": {
        "type": "Point",
        "coordinates": [38.8471, -10.82]
      },
      "properties": {
        "name": "K\u00e4dron",
        "realm_idx": 289,
        "order": "The Order of Giants",
        "resources": ["Stone"]
      }
    },
    {
      "type": "Feature",
      "geometry": {
        "type": "Point",
        "coordinates": [-123.48, -0.3997]
      },
      "properties": {
        "name": "Kuell\u00e9dg\u00edzh",
        "realm_idx": 290,
        "order": "The Order of Detection",
        "resources": ["Coal", "Silver", "Cold Iron"]
      }
    },
    {
      "type": "Feature",
      "geometry": {
        "type": "Point",
        "coordinates": [-90.9578, -23.9371]
      },
      "properties": {
        "name": "Taupti\u00edmai",
        "realm_idx": 291,
        "order": "The Order of Reflection",
        "resources": ["Obsidian"]
      }
    },
    {
      "type": "Feature",
      "geometry": {
        "type": "Point",
        "coordinates": [54.5471, 11.58]
      },
      "properties": {
        "name": "Mansbim",
        "realm_idx": 292,
        "order": "The Order of Brilliance",
        "resources": ["Wood", "Copper", "Adamantine"]
      }
    },
    {
      "type": "Feature",
      "geometry": {
        "type": "Point",
        "coordinates": [117.5471, 41.18]
      },
      "properties": {
        "name": "Zrahpoztiz",
        "realm_idx": 293,
        "order": "The Order of Enlightenment",
        "resources": ["Coal", "Copper", "Obsidian", "Stone"]
      }
    },
    {
      "type": "Feature",
      "geometry": {
        "type": "Point",
        "coordinates": [-52.08, -45.2997]
      },
      "properties": {
        "name": "Lashsishtosh",
        "realm_idx": 294,
        "order": "The Order of the Fox",
        "resources": ["Stone", "Cold Iron"]
      }
    },
    {
      "type": "Feature",
      "geometry": {
        "type": "Point",
        "coordinates": [-96.9801, 38.6004]
      },
      "properties": {
        "name": "Ukusun",
        "realm_idx": 295,
        "order": "The Order of Anger",
        "resources": ["Wood", "Silver"]
      }
    },
    {
      "type": "Feature",
      "geometry": {
        "type": "Point",
        "coordinates": [-89.0801, -40.3996]
      },
      "properties": {
        "name": "Soskirk",
        "realm_idx": 296,
        "order": "The Order of the Twins",
        "resources": ["Coal", "Stone", "Wood"]
      }
    },
    {
      "type": "Feature",
      "geometry": {
        "type": "Point",
        "coordinates": [-34.0529, 12.48]
      },
      "properties": {
        "name": "Plusblomnlaz",
        "realm_idx": 297,
        "order": "The Order of Vitriol",
        "resources": ["Copper"]
      }
    },
    {
      "type": "Feature",
      "geometry": {
        "type": "Point",
        "coordinates": [72.1471, -26.62]
      },
      "properties": {
        "name": "Mapmo",
        "realm_idx": 298,
        "order": "The Order of Perfection",
        "resources": ["Wood", "Silver", "Obsidian"]
      }
    },
    {
      "type": "Feature",
      "geometry": {
        "type": "Point",
        "coordinates": [-84.1801, -15.4996]
      },
      "properties": {
        "name": "K\u00e1lmhahil",
        "realm_idx": 299,
        "order": "The Order of Rage",
        "resources": ["Silver", "Stone", "Obsidian", "Coal", "Wood"]
      }
    },
    {
      "type": "Feature",
      "geometry": {
        "type": "Point",
        "coordinates": [-121.18, -0.5997]
      },
      "properties": {
        "name": "Klan-tin-Lem",
        "realm_idx": 300,
        "order": "The Order of Detection",
        "resources": ["Coal", "Hartwood"]
      }
    },
    {
      "type": "Feature",
      "geometry": {
        "type": "Point",
        "coordinates": [50.5471, -32.02]
      },
      "properties": {
        "name": "As-dum-Iggis",
        "realm_idx": 301,
        "order": "The Order of Giants",
        "resources": ["Silver", "Ironwood", "Wood", "Coal", "Alchemical Silver"]
      }
    },
    {
      "type": "Feature",
      "geometry": {
        "type": "Point",
        "coordinates": [37.0471, -6.72]
      },
      "properties": {
        "name": "\u00cdpuhuwuyuzh",
        "realm_idx": 302,
        "order": "The Order of Giants",
        "resources": ["Wood", "Alchemical Silver", "Stone", "Copper", "Coal"]
      }
    },
    {
      "type": "Feature",
      "geometry": {
        "type": "Point",
        "coordinates": [20.2471, 31.08]
      },
      "properties": {
        "name": "Baasaan",
        "realm_idx": 303,
        "order": "The Order of Titans",
        "resources": ["Silver", "Stone", "Cold Iron", "Wood"]
      }
    },
    {
      "type": "Feature",
      "geometry": {
        "type": "Point",
        "coordinates": [69.7471, 48.68]
      },
      "properties": {
        "name": "\u00cdhn\u00ednil",
        "realm_idx": 304,
        "order": "The Order of Skill",
        "resources": ["Coal", "Wood", "Copper"]
      }
    },
    {
      "type": "Feature",
      "geometry": {
        "type": "Point",
        "coordinates": [33.4471, -38.12]
      },
      "properties": {
        "name": "Kusip Saptit",
        "realm_idx": 305,
        "order": "The Order of Giants",
        "resources": ["Ironwood"]
      }
    },
    {
      "type": "Feature",
      "geometry": {
        "type": "Point",
        "coordinates": [-51.5529, 55.38]
      },
      "properties": {
        "name": "Maptitnim",
        "realm_idx": 306,
        "order": "The Order of Fury",
        "resources": ["Obsidian", "Wood", "Coal"]
      }
    },
    {
      "type": "Feature",
      "geometry": {
        "type": "Point",
        "coordinates": [-55.28, -34.1997]
      },
      "properties": {
        "name": "Kuk\u00famnregrom",
        "realm_idx": 307,
        "order": "The Order of the Fox",
        "resources": ["Stone", "Cold Iron", "Copper", "Wood"]
      }
    },
    {
      "type": "Feature",
      "geometry": {
        "type": "Point",
        "coordinates": [-101.8756, -35.9676]
      },
      "properties": {
        "name": "Konkon",
        "realm_idx": 308,
        "order": "The Order of Reflection",
        "resources": ["Wood", "Silver", "Obsidian", "Coal"]
      }
    },
    {
      "type": "Feature",
      "geometry": {
        "type": "Point",
        "coordinates": [-16.5529, -31.32]
      },
      "properties": {
        "name": "Iniiimaal",
        "realm_idx": 309,
        "order": "The Order of Power",
        "resources": ["Coal", "Wood", "Copper", "Hartwood", "Ironwood"]
      }
    },
    {
      "type": "Feature",
      "geometry": {
        "type": "Point",
        "coordinates": [-116.9409, 31.033]
      },
      "properties": {
        "name": "Onuhamomom",
        "realm_idx": 310,
        "order": "The Order of Reflection",
        "resources": ["Gold", "Wood", "Coal", "Obsidian", "Silver"]
      }
    },
    {
      "type": "Feature",
      "geometry": {
        "type": "Point",
        "coordinates": [65.6471, -16.02]
      },
      "properties": {
        "name": "Nuddu",
        "realm_idx": 311,
        "order": "The Order of Perfection",
        "resources": ["Ironwood", "Copper"]
      }
    },
    {
      "type": "Feature",
      "geometry": {
        "type": "Point",
        "coordinates": [-83.5383, 27.9385]
      },
      "properties": {
        "name": "\u00c2m\u00e2n\u00e2me",
        "realm_idx": 312,
        "order": "The Order of Anger",
        "resources": ["Coal", "Wood", "Copper"]
      }
    },
    {
      "type": "Feature",
      "geometry": {
        "type": "Point",
        "coordinates": [25.6471, -37.32]
      },
      "properties": {
        "name": "Nusang",
        "realm_idx": 313,
        "order": "The Order of Giants",
        "resources": ["Cold Iron", "Coal"]
      }
    },
    {
      "type": "Feature",
      "geometry": {
        "type": "Point",
        "coordinates": [121.2417, -27.4546]
      },
      "properties": {
        "name": "Dadiddom",
        "realm_idx": 314,
        "order": "The Order of Protection",
        "resources": ["Stone"]
      }
    },
    {
      "type": "Feature",
      "geometry": {
        "type": "Point",
        "coordinates": [-56.263, 21.3974]
      },
      "properties": {
        "name": "Dendumtengin",
        "realm_idx": 315,
        "order": "The Order of Fury",
        "resources": ["Wood", "Coal", "Obsidian", "Stone", "Diamonds"]
      }
    },
    {
      "type": "Feature",
      "geometry": {
        "type": "Point",
        "coordinates": [-110.9381, 28.7596]
      },
      "properties": {
        "name": "Slikslul",
        "realm_idx": 316,
        "order": "The Order of Reflection",
        "resources": ["Obsidian"]
      }
    },