{
    "type": "FeatureCollection",
    "features": [
        {
            "coordinates": [
                28.7471,
                -18.92
            ],
            "id": 1,
            "name": "Stolsli"
        },
        {
            "coordinates": [
                114.0133,
                0.5246
            ],
            "id": 2,
            "name": "Ilgzhijajilg"
        },
        {
            "coordinates": [
                -107.4801,
                16.6004
            ],
            "id": 3,
            "name": "Hetokamohuti"
        },
        {
            "coordinates": [
                -54.367,
                -33.3106
            ],
            "id": 4,
            "name": "Egonal"
        },
        {
            "coordinates": [
                -92.2801,
                -54.5996
            ],
            "id": 5,
            "name": "‘oak Leukue"
        },
        {
            "coordinates": [
                -45.5137,
                51.2713
            ],
            "id": 6,
            "name": "Noykkuynoyk"
        },
        {
            "coordinates": [
                -90.88,
                -20.4997
            ],
            "id": 7,
            "name": "ta Tin"
        },
        {
            "coordinates": [
                -128.18,
                -5.1997
            ],
            "id": 8,
            "name": "Mákoskúk"
        },
        {
            "coordinates": [
                -57.6701,
                45.7468
            ],
            "id": 9,
            "name": "Niotsae"
        },
        {
            "coordinates": [
                113.6068,
                -0.8031
            ],
            "id": 10,
            "name": "‘unpik"
        },
        {
            "coordinates": [
                -58.6047,
                12.5257
            ],
            "id": 11,
            "name": "Ozhéch"
        },
        {
            "coordinates": [
                -58.7529,
                45.68
            ],
            "id": 12,
            "name": "Länängun"
        },
        {
            "coordinates": [
                75.6471,
                26.08
            ],
            "id": 13,
            "name": "Tultul"
        },
        {
            "coordinates": [
                79.7471,
                -20.92
            ],
            "id": 14,
            "name": "tál Šnislis"
        },
        {
            "coordinates": [
                -102.38,
                -6.8997
            ],
            "id": 15,
            "name": "Qeujqeujwouw"
        },
        {
            "coordinates": [
                -117.48,
                17.4003
            ],
            "id": 16,
            "name": "Ïš-Arg"
        },
        {
            "coordinates": [
                94.4471,
                12.18
            ],
            "id": 17,
            "name": "Skassluk"
        },
        {
            "coordinates": [
                -89.4801,
                -48.1996
            ],
            "id": 18,
            "name": "Ulolepon"
        },
        {
            "coordinates": [
                -115.28,
                40.3003
            ],
            "id": 19,
            "name": "Emilsh Imnos"
        },
        {
            "coordinates": [
                54.0471,
                -22.32
            ],
            "id": 20,
            "name": "Uyqlayros"
        },
        {
            "coordinates": [
                -118.88,
                11.8003
            ],
            "id": 21,
            "name": "Lemoltnuls"
        },
        {
            "coordinates": [
                126.678,
                8.7865
            ],
            "id": 22,
            "name": "Hemmemskän"
        },
        {
            "coordinates": [
                -127.88,
                -11.9997
            ],
            "id": 23,
            "name": "Ur Murorzh"
        },
        {
            "coordinates": [
                75.7471,
                -13.92
            ],
            "id": 24,
            "name": "Poi a Polih"
        },
        {
            "coordinates": [
                -117.88,
                13.1003
            ],
            "id": 25,
            "name": "Aunomim"
        },
        {
            "coordinates": [
                30.7471,
                -9.62
            ],
            "id": 26,
            "name": "lel Kúbklor"
        },
        {
            "coordinates": [
                99.7471,
                -12.72
            ],
            "id": 27,
            "name": "Konlompon"
        },
        {
            "coordinates": [
                -42.6927,
                52.9557
            ],
            "id": 28,
            "name": "Quokquok"
        },
        {
            "coordinates": [
                -40.0529,
                -6.82
            ],
            "id": 29,
            "name": "ken Nintän"
        },
        {
            "coordinates": [
                9.6471,
                34.58
            ],
            "id": 30,
            "name": "Um nyn Ansyn"
        },
        {
            "coordinates": [
                21.4471,
                47.58
            ],
            "id": 31,
            "name": "‘ilh‘ilhmil"
        },
        {
            "coordinates": [
                -52.68,
                -46.5997
            ],
            "id": 32,
            "name": "up Ímásímis"
        },
        {
            "coordinates": [
                87.7471,
                4.88
            ],
            "id": 33,
            "name": "Anonganimong"
        },
        {
            "coordinates": [
                -105.48,
                -5.1997
            ],
            "id": 34,
            "name": "Zhusa-Letepo"
        },
        {
            "coordinates": [
                69.8015,
                -15.4092
            ],
            "id": 35,
            "name": "Temleknonnep"
        },
        {
            "coordinates": [
                -111.58,
                35.7003
            ],
            "id": 36,
            "name": "Snúdusugato"
        },
        {
            "coordinates": [
                115.8618,
                5.9607
            ],
            "id": 37,
            "name": "Windom Dun"
        },
        {
            "coordinates": [
                58.7471,
                33.68
            ],
            "id": 38,
            "name": "Sdídzhish"
        },
        {
            "coordinates": [
                91.6852,
                -16.9351
            ],
            "id": 39,
            "name": "Mensinnon"
        },
        {
            "coordinates": [
                68.5471,
                41.98
            ],
            "id": 40,
            "name": "Skapnap"
        },
        {
            "coordinates": [
                95.5471,
                11.58
            ],
            "id": 41,
            "name": "Keuk Duokkou"
        },
        {
            "coordinates": [
                97.0993,
                -19.4254
            ],
            "id": 42,
            "name": "Randulghid"
        },
        {
            "coordinates": [
                -15.6529,
                -28.12
            ],
            "id": 43,
            "name": "Nisku"
        },
        {
            "coordinates": [
                -29.9529,
                26.58
            ],
            "id": 44,
            "name": "Duyshbo"
        },
        {
            "coordinates": [
                -36.4689,
                -10.6388
            ],
            "id": 45,
            "name": "Íwáw Ulul"
        },
        {
            "coordinates": [
                -59.28,
                10.8003
            ],
            "id": 46,
            "name": "Nótkaun"
        },
        {
            "coordinates": [
                81.5471,
                -19.72
            ],
            "id": 47,
            "name": "Nïänëon"
        },
        {
            "coordinates": [
                -51.88,
                -47.1997
            ],
            "id": 48,
            "name": "Or-Urnpir"
        },
        {
            "coordinates": [
                -125.58,
                7.9003
            ],
            "id": 49,
            "name": "Líshímá"
        },
        {
            "coordinates": [
                -123.58,
                8.1003
            ],
            "id": 50,
            "name": "Konkonkinnan"
        },
        {
            "coordinates": [
                0.0471,
                46.08
            ],
            "id": 51,
            "name": "‘ilweli"
        },
        {
            "coordinates": [
                -4.8529,
                -26.22
            ],
            "id": 52,
            "name": "Unum-Ununan"
        },
        {
            "coordinates": [
                7.4471,
                -15.12
            ],
            "id": 53,
            "name": "U-pu-Hunak"
        },
        {
            "coordinates": [
                -62.8708,
                47.3956
            ],
            "id": 54,
            "name": "Loseplal"
        },
        {
            "coordinates": [
                58.9471,
                25.58
            ],
            "id": 55,
            "name": "Pinten"
        },
        {
            "coordinates": [
                55.9471,
                30.08
            ],
            "id": 56,
            "name": "Gompon"
        },
        {
            "coordinates": [
                1.2471,
                -3.12
            ],
            "id": 57,
            "name": "Kum Pin"
        },
        {
            "coordinates": [
                53.6471,
                14.58
            ],
            "id": 58,
            "name": "rien Katvier"
        },
        {
            "coordinates": [
                62.2471,
                16.58
            ],
            "id": 59,
            "name": "Ngimsngamgin"
        },
        {
            "coordinates": [
                -34.4529,
                14.88
            ],
            "id": 60,
            "name": "Schintísi"
        },
        {
            "coordinates": [
                -75.7801,
                44.9004
            ],
            "id": 61,
            "name": "Siwseysawp"
        },
        {
            "coordinates": [
                52.5471,
                30.78
            ],
            "id": 62,
            "name": "Emalim"
        },
        {
            "coordinates": [
                -97.2801,
                45.1004
            ],
            "id": 63,
            "name": "as Oket"
        },
        {
            "coordinates": [
                -105.9201,
                43.098
            ],
            "id": 64,
            "name": "Goxnlen"
        },
        {
            "coordinates": [
                36.4471,
                0.28
            ],
            "id": 65,
            "name": "Klehlêktlik"
        },
        {
            "coordinates": [
                -104.7801,
                39.3004
            ],
            "id": 66,
            "name": "Nriputam"
        },
        {
            "coordinates": [
                -21.9529,
                43.08
            ],
            "id": 67,
            "name": "Elolkalnul"
        },
        {
            "coordinates": [
                95.3471,
                47.98
            ],
            "id": 68,
            "name": "Lounloun"
        },
        {
            "coordinates": [
                -89.2801,
                46.4004
            ],
            "id": 69,
            "name": "Syunnan-Tin"
        },
        {
            "coordinates": [
                96.3471,
                58.28
            ],
            "id": 70,
            "name": "Pweis"
        },
        {
            "coordinates": [
                39.7471,
                -32.72
            ],
            "id": 71,
            "name": "Pem‘âp Pi‘"
        },
        {
            "coordinates": [
                -129.98,
                -13.4997
            ],
            "id": 72,
            "name": "Molémokáslul"
        },
        {
            "coordinates": [
                114.8471,
                43.38
            ],
            "id": 73,
            "name": "Nikun Hihni"
        },
        {
            "coordinates": [
                57.2471,
                -21.32
            ],
            "id": 74,
            "name": "Punsittil"
        },
        {
            "coordinates": [
                -53.6529,
                47.48
            ],
            "id": 75,
            "name": "Hueteumuam"
        },
        {
            "coordinates": [
                94.6471,
                15.48
            ],
            "id": 76,
            "name": "Sguk Sjak"
        },
        {
            "coordinates": [
                42.4471,
                11.88
            ],
            "id": 77,
            "name": "Nalxgitxmik"
        },
        {
            "coordinates": [
                -31.7529,
                -7.92
            ],
            "id": 78,
            "name": "Klítsuk"
        },
        {
            "coordinates": [
                -53.88,
                -50.3996
            ],
            "id": 79,
            "name": "Amtunung"
        },
        {
            "coordinates": [
                -64.88,
                -59.9996
            ],
            "id": 80,
            "name": "Šjápbjatšjáp"
        },
        {
            "coordinates": [
                104.7471,
                -8.82
            ],
            "id": 81,
            "name": "Sel Ólngárq"
        },
        {
            "coordinates": [
                -104.28,
                -7.7997
            ],
            "id": 82,
            "name": "Siosua"
        },
        {
            "coordinates": [
                -117.28,
                9.6003
            ],
            "id": 83,
            "name": "Mihiko"
        },
        {
            "coordinates": [
                -56.7956,
                -50.2645
            ],
            "id": 84,
            "name": "Oqovuv"
        },
        {
            "coordinates": [
                -88.0758,
                45.7623
            ],
            "id": 85,
            "name": "Munsmum"
        },
        {
            "coordinates": [
                -117.28,
                8.7003
            ],
            "id": 86,
            "name": "Pengse"
        },
        {
            "coordinates": [
                -89.1801,
                -33.2996
            ],
            "id": 87,
            "name": "Gislegob"
        },
        {
            "coordinates": [
                93.5471,
                48.78
            ],
            "id": 88,
            "name": "Momskemsken"
        },
        {
            "coordinates": [
                -90.68,
                -29.4997
            ],
            "id": 89,
            "name": "shís Téssmés"
        },
        {
            "coordinates": [
                56.7471,
                -44.52
            ],
            "id": 90,
            "name": "Detúsek Ekek"
        },
        {
            "coordinates": [
                95.1471,
                42.18
            ],
            "id": 91,
            "name": "Idududim"
        },
        {
            "coordinates": [
                34.3471,
                -10.92
            ],
            "id": 92,
            "name": "Nenne"
        },
        {
            "coordinates": [
                -93.1801,
                49.1004
            ],
            "id": 93,
            "name": "Spinkonpin"
        },
        {
            "coordinates": [
                42.6471,
                -13.72
            ],
            "id": 94,
            "name": "Poilsêul Pos"
        },
        {
            "coordinates": [
                110.2925,
                -19.6809
            ],
            "id": 95,
            "name": "shuh Spu"
        },
        {
            "coordinates": [
                106.6471,
                49.28
            ],
            "id": 96,
            "name": "Susuki"
        },
        {
            "coordinates": [
                85.4471,
                -7.22
            ],
            "id": 97,
            "name": "Tawmnu"
        },
        {
            "coordinates": [
                1.0471,
                8.98
            ],
            "id": 98,
            "name": "Smenkin"
        },
        {
            "coordinates": [
                85.9592,
                -23.9063
            ],
            "id": 99,
            "name": "Nintúm"
        },
        {
            "coordinates": [
                112.7471,
                10.28
            ],
            "id": 100,
            "name": "Kaatsnootstu"
        },
        {
            "coordinates": [
                114.469,
                -22.7292
            ],
            "id": 101,
            "name": "Umpojkmikpop"
        },
        {
            "coordinates": [
                -65.18,
                28.7003
            ],
            "id": 102,
            "name": "Niopzhop"
        },
        {
            "coordinates": [
                67.4471,
                20.78
            ],
            "id": 103,
            "name": "Shetep"
        },
        {
            "coordinates": [
                78.1471,
                22.28
            ],
            "id": 104,
            "name": "Lâvqyvvio"
        },
        {
            "coordinates": [
                80.2471,
                23.38
            ],
            "id": 105,
            "name": "Dawudhijkid"
        },
        {
            "coordinates": [
                17.4471,
                -34.92
            ],
            "id": 106,
            "name": "Lopgach"
        },
        {
            "coordinates": [
                -65.1801,
                4.1004
            ],
            "id": 107,
            "name": "Silli Suulko"
        },
        {
            "coordinates": [
                115.2471,
                36.48
            ],
            "id": 108,
            "name": "Komali"
        },
        {
            "coordinates": [
                94.3471,
                29.78
            ],
            "id": 109,
            "name": "Srulkrekuk"
        },
        {
            "coordinates": [
                56.7471,
                6.98
            ],
            "id": 110,
            "name": "Raryrir"
        },
        {
            "coordinates": [
                -37.8841,
                -10.7095
            ],
            "id": 111,
            "name": "Owuwul"
        },
        {
            "coordinates": [
                9.2471,
                32.48
            ],
            "id": 112,
            "name": "Kuimkuip"
        },
        {
            "coordinates": [
                -73.4801,
                40.1004
            ],
            "id": 113,
            "name": "Purskirkir"
        },
        {
            "coordinates": [
                -55.156,
                56.9385
            ],
            "id": 114,
            "name": "Tchontcho"
        },
        {
            "coordinates": [
                55.6471,
                6.88
            ],
            "id": 115,
            "name": "kï-Nisïlm"
        },
        {
            "coordinates": [
                70.5471,
                -26.72
            ],
            "id": 116,
            "name": "Kik‘enlulkik"
        },
        {
            "coordinates": [
                -125.68,
                7.4003
            ],
            "id": 117,
            "name": "Qenkon"
        },
        {
            "coordinates": [
                -35.7529,
                -5.12
            ],
            "id": 118,
            "name": "Songkensong"
        },
        {
            "coordinates": [
                26.2471,
                -33.22
            ],
            "id": 119,
            "name": "Chruktrikwik"
        },
        {
            "coordinates": [
                100.0615,
                -11.6644
            ],
            "id": 120,
            "name": "Nramkan"
        },
        {
            "coordinates": [
                59.2471,
                33.68
            ],
            "id": 121,
            "name": "Kïrlïdlïd"
        },
        {
            "coordinates": [
                96.3471,
                42.88
            ],
            "id": 122,
            "name": "Muki Kaki"
        },
        {
            "coordinates": [
                63.0471,
                22.98
            ],
            "id": 123,
            "name": "Glumxixkum"
        },
        {
            "coordinates": [
                -130.68,
                -5.5997
            ],
            "id": 124,
            "name": "Fdiqchud"
        },
        {
            "coordinates": [
                4.4471,
                -1.72
            ],
            "id": 125,
            "name": "Enhüm"
        },
        {
            "coordinates": [
                -54.28,
                -31.9997
            ],
            "id": 126,
            "name": "Dupchiep"
        },
        {
            "coordinates": [
                35.1471,
                -42.12
            ],
            "id": 127,
            "name": "Usélés"
        },
        {
            "coordinates": [
                -57.9801,
                -18.7996
            ],
            "id": 128,
            "name": "pit Kuklak"
        },
        {
            "coordinates": [
                40.8471,
                10.68
            ],
            "id": 129,
            "name": "Namum"
        },
        {
            "coordinates": [
                -67.1801,
                -19.6996
            ],
            "id": 130,
            "name": "Nrussrim"
        },
        {
            "coordinates": [
                -11.7529,
                22.28
            ],
            "id": 131,
            "name": "Miqakami"
        },
        {
            "coordinates": [
                -45.0268,
                52.3409
            ],
            "id": 132,
            "name": "Zaizbun"
        },
        {
            "coordinates": [
                -119.38,
                13.2003
            ],
            "id": 133,
            "name": "Atíqij"
        },
        {
            "coordinates": [
                115.0471,
                28.28
            ],
            "id": 134,
            "name": "Nganu"
        },
        {
            "coordinates": [
                13.2471,
                -37.92
            ],
            "id": 135,
            "name": "Lulu-Lulutik"
        },
        {
            "coordinates": [
                -89.2801,
                -20.2996
            ],
            "id": 136,
            "name": "Mákké sok Mi"
        },
        {
            "coordinates": [
                109.4935,
                -20.1535
            ],
            "id": 137,
            "name": "Sinsinsin"
        },
        {
            "coordinates": [
                -88.5801,
                -33.2996
            ],
            "id": 138,
            "name": "Pengseng"
        },
        {
            "coordinates": [
                -42.5529,
                3.68
            ],
            "id": 139,
            "name": "Zarmaln"
        },
        {
            "coordinates": [
                83.6471,
                -18.22
            ],
            "id": 140,
            "name": "Pjenmjum"
        },
        {
            "coordinates": [
                -3.2529,
                -3.72
            ],
            "id": 141,
            "name": "Osmop"
        },
        {
            "coordinates": [
                -45.3268,
                52.4409
            ],
            "id": 142,
            "name": "Duu Kemwoona"
        },
        {
            "coordinates": [
                -0.9529,
                26.08
            ],
            "id": 143,
            "name": "skún Chumkon"
        },
        {
            "coordinates": [
                43.9471,
                3.28
            ],
            "id": 144,
            "name": "Ukuletulipip"
        },
        {
            "coordinates": [
                87.2471,
                -14.22
            ],
            "id": 145,
            "name": "Niuniugais"
        },
        {
            "coordinates": [
                117.0644,
                -23.8546
            ],
            "id": 146,
            "name": "Ghunbun"
        },
        {
            "coordinates": [
                25.3471,
                -37.42
            ],
            "id": 147,
            "name": "Teslesklek"
        },
        {
            "coordinates": [
                9.2471,
                29.28
            ],
            "id": 148,
            "name": "Sólsólóliror"
        },
        {
            "coordinates": [
                112.6412,
                -22.768
            ],
            "id": 149,
            "name": "Semege"
        },
        {
            "coordinates": [
                16.9471,
                55.08
            ],
            "id": 150,
            "name": "Leunhoalwiu"
        },
        {
            "coordinates": [
                117.8025,
                5.2829
            ],
            "id": 151,
            "name": "Mikuku"
        },
        {
            "coordinates": [
                125.5676,
                4.4052
            ],
            "id": 152,
            "name": "I-tek-Sil"
        },
        {
            "coordinates": [
                -116.88,
                13.2003
            ],
            "id": 153,
            "name": "Nongkhunkang"
        },
        {
            "coordinates": [
                96.2471,
                51.28
            ],
            "id": 154,
            "name": "Upahupum"
        },
        {
            "coordinates": [
                -118.0066,
                37.5335
            ],
            "id": 155,
            "name": "Têmêl-Tumtut"
        },
        {
            "coordinates": [
                96.0471,
                -12.02
            ],
            "id": 156,
            "name": "Gisik"
        },
        {
            "coordinates": [
                -11.6529,
                -22.72
            ],
            "id": 157,
            "name": "Syushstes"
        },
        {
            "coordinates": [
                -11.9529,
                36.38
            ],
            "id": 158,
            "name": "Ikhikqiloik"
        },
        {
            "coordinates": [
                -74.6801,
                -14.6996
            ],
            "id": 159,
            "name": "Zhezhi"
        },
        {
            "coordinates": [
                -37.9527,
                52.5801
            ],
            "id": 160,
            "name": "Snimstwn"
        },
        {
            "coordinates": [
                27.7471,
                -39.22
            ],
            "id": 161,
            "name": "Kesiselm El"
        },
        {
            "coordinates": [
                111.9471,
                31.48
            ],
            "id": 162,
            "name": "Em ‘u"
        },
        {
            "coordinates": [
                -63.78,
                -42.4996
            ],
            "id": 163,
            "name": "Poimmaeppeu"
        },
        {
            "coordinates": [
                -117.68,
                -33.8997
            ],
            "id": 164,
            "name": "Snüngsüng"
        },
        {
            "coordinates": [
                115.4471,
                30.58
            ],
            "id": 165,
            "name": "Ghusschum"
        },
        {
            "coordinates": [
                3.1471,
                -12.82
            ],
            "id": 166,
            "name": "Nguillair"
        },
        {
            "coordinates": [
                -107.4524,
                44.9418
            ],
            "id": 167,
            "name": "Tathamke"
        },
        {
            "coordinates": [
                -63.1529,
                44.68
            ],
            "id": 168,
            "name": "Šommun"
        },
        {
            "coordinates": [
                87.4471,
                16.88
            ],
            "id": 169,
            "name": "Tuptet"
        },
        {
            "coordinates": [
                -115.08,
                12.2003
            ],
            "id": 170,
            "name": "shut Ugshum"
        },
        {
            "coordinates": [
                121.4736,
                -17.4134
            ],
            "id": 171,
            "name": "Puknuk"
        },
        {
            "coordinates": [
                112.247,
                -1.92
            ],
            "id": 172,
            "name": "Ié Teteésíku"
        },
        {
            "coordinates": [
                60.5471,
                6.88
            ],
            "id": 173,
            "name": "O‘inew"
        },
        {
            "coordinates": [
                -59.8801,
                -21.9996
            ],
            "id": 174,
            "name": "Niolaekae"
        },
        {
            "coordinates": [
                21.4471,
                53.88
            ],
            "id": 175,
            "name": "Nenshnan"
        },
        {
            "coordinates": [
                94.2471,
                54.88
            ],
            "id": 176,
            "name": "Sángúm Áigúi"
        },
        {
            "coordinates": [
                -52.18,
                -51.4996
            ],
            "id": 177,
            "name": "Tizgizgezmiz"
        },
        {
            "coordinates": [
                29.6471,
                11.18
            ],
            "id": 178,
            "name": "Tuknek"
        },
        {
            "coordinates": [
                -45.2529,
                5.88
            ],
            "id": 179,
            "name": "Nulmop"
        },
        {
            "coordinates": [
                -64.2431,
                38.5125
            ],
            "id": 180,
            "name": "Lonoskak"
        },
        {
            "coordinates": [
                -9.0529,
                29.78
            ],
            "id": 181,
            "name": "Tus Luksus"
        },
        {
            "coordinates": [
                31.5471,
                14.78
            ],
            "id": 182,
            "name": "sun Shmam"
        },
        {
            "coordinates": [
                -97.2801,
                47.2004
            ],
            "id": 183,
            "name": "Klunklinpun"
        },
        {
            "coordinates": [
                4.4471,
                0.68
            ],
            "id": 184,
            "name": "Ünükuhükom"
        },
        {
            "coordinates": [
                117.8471,
                17.48
            ],
            "id": 185,
            "name": "Kulususyn"
        },
        {
            "coordinates": [
                -72.2801,
                -11.9996
            ],
            "id": 186,
            "name": "Lew Yiw"
        },
        {
            "coordinates": [
                -122.68,
                -10.9997
            ],
            "id": 187,
            "name": "Tolpel"
        },
        {
            "coordinates": [
                -52.48,
                -51.5996
            ],
            "id": 188,
            "name": "Ozhbub"
        },
        {
            "coordinates": [
                -53.38,
                -48.2997
            ],
            "id": 189,
            "name": "Iszhekulari"
        },
        {
            "coordinates": [
                114.2471,
                11.08
            ],
            "id": 190,
            "name": "Tilsôl"
        },
        {
            "coordinates": [
                -0.7529,
                25.78
            ],
            "id": 191,
            "name": "Naunsmansmum"
        },
        {
            "coordinates": [
                -30.4529,
                24.78
            ],
            "id": 192,
            "name": "Uhomuhomam"
        },
        {
            "coordinates": [
                -129.58,
                0.4003
            ],
            "id": 193,
            "name": "Kuimmian"
        },
        {
            "coordinates": [
                125.1471,
                14.28
            ],
            "id": 194,
            "name": "Súnin"
        },
        {
            "coordinates": [
                121.9359,
                10.0273
            ],
            "id": 195,
            "name": "Muzhden"
        },
        {
            "coordinates": [
                78.2471,
                19.98
            ],
            "id": 196,
            "name": "Uketap Uhup"
        },
        {
            "coordinates": [
                -63.3801,
                6.3004
            ],
            "id": 197,
            "name": "Imuwogugog"
        },
        {
            "coordinates": [
                -70.0801,
                46.4004
            ],
            "id": 198,
            "name": "Luuslumsluum"
        },
        {
            "coordinates": [
                112.2471,
                9.58
            ],
            "id": 199,
            "name": "sun Damken"
        },
        {
            "coordinates": [
                -81.0801,
                50.8004
            ],
            "id": 200,
            "name": "Aamiž"
        },
        {
            "coordinates": [
                87.8471,
                16.88
            ],
            "id": 201,
            "name": "Amlutlush"
        },
        {
            "coordinates": [
                -87.2801,
                -48.0996
            ],
            "id": 202,
            "name": "Tágziszistit"
        },
        {
            "coordinates": [
                -74.0801,
                28.9004
            ],
            "id": 203,
            "name": "Shollur"
        },
        {
            "coordinates": [
                47.9471,
                -40.82
            ],
            "id": 204,
            "name": "Roshnok"
        },
        {
            "coordinates": [
                -57.4529,
                55.58
            ],
            "id": 205,
            "name": "Erkdornmur"
        },
        {
            "coordinates": [
                -64.88,
                29.8003
            ],
            "id": 206,
            "name": "Izházhásizh"
        },
        {
            "coordinates": [
                -51.38,
                20.5003
            ],
            "id": 207,
            "name": "ep Akipetut"
        },
        {
            "coordinates": [
                -55.5801,
                -26.4996
            ],
            "id": 208,
            "name": "Wamwammunkun"
        },
        {
            "coordinates": [
                -116.68,
                9.6003
            ],
            "id": 209,
            "name": "Tonnen"
        },
        {
            "coordinates": [
                -116.08,
                -33.9997
            ],
            "id": 210,
            "name": "Nla‘wul"
        },
        {
            "coordinates": [
                -54.78,
                -39.4997
            ],
            "id": 211,
            "name": "Srigh"
        },
        {
            "coordinates": [
                -91.6801,
                -33.0996
            ],
            "id": 212,
            "name": "Bíghkík"
        },
        {
            "coordinates": [
                -78.8801,
                44.0004
            ],
            "id": 213,
            "name": "Nainuonuopau"
        },
        {
            "coordinates": [
                77.3471,
                -11.92
            ],
            "id": 214,
            "name": "Smákwá‘"
        },
        {
            "coordinates": [
                7.2471,
                4.38
            ],
            "id": 215,
            "name": "Tikkeútkit"
        },
        {
            "coordinates": [
                21.1471,
                48.18
            ],
            "id": 216,
            "name": "Giz Liz"
        },
        {
            "coordinates": [
                124.3039,
                3.7715
            ],
            "id": 217,
            "name": "Lewkkekpiiw"
        },
        {
            "coordinates": [
                8.3471,
                13.98
            ],
            "id": 218,
            "name": "Samikmik"
        },
        {
            "coordinates": [
                77.0471,
                -22.22
            ],
            "id": 219,
            "name": "Slazhgux"
        },
        {
            "coordinates": [
                -51.5529,
                54.48
            ],
            "id": 220,
            "name": "Shohih"
        },
        {
            "coordinates": [
                50.7471,
                -19.32
            ],
            "id": 221,
            "name": "Chosol"
        },
        {
            "coordinates": [
                -11.9529,
                -24.72
            ],
            "id": 222,
            "name": "Snossnúb"
        },
        {
            "coordinates": [
                26.0471,
                -32.12
            ],
            "id": 223,
            "name": "Muzhsush"
        },
        {
            "coordinates": [
                -62.5529,
                44.88
            ],
            "id": 224,
            "name": "Titnletnlit"
        },
        {
            "coordinates": [
                -33.4529,
                8.88
            ],
            "id": 225,
            "name": "Sonmlwmljam"
        },
        {
            "coordinates": [
                -73.4801,
                -14.0996
            ],
            "id": 226,
            "name": "ak Inop"
        },
        {
            "coordinates": [
                56.8471,
                39.28
            ],
            "id": 227,
            "name": "Bulxbar"
        },
        {
            "coordinates": [
                15.5471,
                15.28
            ],
            "id": 228,
            "name": "lin Minnan"
        },
        {
            "coordinates": [
                94.6471,
                16.28
            ],
            "id": 229,
            "name": "Yalyngâ"
        },
        {
            "coordinates": [
                64.6471,
                12.68
            ],
            "id": 230,
            "name": "Kenteh"
        },
        {
            "coordinates": [
                89.8471,
                1.48
            ],
            "id": 231,
            "name": "Lokyoup"
        },
        {
            "coordinates": [
                -3.3529,
                19.98
            ],
            "id": 232,
            "name": "Keslek"
        },
        {
            "coordinates": [
                -108.98,
                33.8003
            ],
            "id": 233,
            "name": "Tátílisum"
        },
        {
            "coordinates": [
                -55.58,
                -34.3997
            ],
            "id": 234,
            "name": "Slunnlin"
        },
        {
            "coordinates": [
                -114.38,
                -31.5997
            ],
            "id": 235,
            "name": "Gunungqun"
        },
        {
            "coordinates": [
                57.2471,
                20.48
            ],
            "id": 236,
            "name": "Varing"
        },
        {
            "coordinates": [
                46.5471,
                -16.32
            ],
            "id": 237,
            "name": "Kuozhuad"
        },
        {
            "coordinates": [
                44.5471,
                -37.02
            ],
            "id": 238,
            "name": "Jansín"
        },
        {
            "coordinates": [
                -66.3801,
                -18.6996
            ],
            "id": 239,
            "name": "Zumzin"
        },
        {
            "coordinates": [
                -84.5801,
                -16.1996
            ],
            "id": 240,
            "name": "Qaunnauq"
        },
        {
            "coordinates": [
                -82.7108,
                -13.7354
            ],
            "id": 241,
            "name": "Tetezo"
        },
        {
            "coordinates": [
                -60.58,
                -55.4996
            ],
            "id": 242,
            "name": "Udidir"
        },
        {
            "coordinates": [
                114.5471,
                42.28
            ],
            "id": 243,
            "name": "Túaptiuktúap"
        },
        {
            "coordinates": [
                87.9471,
                3.88
            ],
            "id": 244,
            "name": "Nlat-Mútmlum"
        },
        {
            "coordinates": [
                38.1471,
                -0.92
            ],
            "id": 245,
            "name": "Vig Ping"
        },
        {
            "coordinates": [
                -8.3529,
                -27.52
            ],
            "id": 246,
            "name": "Ipzuw"
        },
        {
            "coordinates": [
                86.1471,
                18.08
            ],
            "id": 247,
            "name": "Êtetpitak"
        },
        {
            "coordinates": [
                61.4471,
                17.28
            ],
            "id": 248,
            "name": "Ïrïrïlmïr"
        },
        {
            "coordinates": [
                -57.6529,
                46.18
            ],
            "id": 249,
            "name": "Vuiryai"
        },
        {
            "coordinates": [
                -103.28,
                -6.9997
            ],
            "id": 250,
            "name": "Nunkonlam"
        },
        {
            "coordinates": [
                47.6471,
                6.08
            ],
            "id": 251,
            "name": "Son Nulunmun"
        },
        {
            "coordinates": [
                119.7367,
                10.8385
            ],
            "id": 252,
            "name": "Atkrukrotkeh"
        },
        {
            "coordinates": [
                -63.38,
                -59.5996
            ],
            "id": 253,
            "name": "Upimim"
        },
        {
            "coordinates": [
                -126.48,
                4.3003
            ],
            "id": 254,
            "name": "Schgontamrum"
        },
        {
            "coordinates": [
                -56.0527,
                -51.1606
            ],
            "id": 255,
            "name": "Morszizsgum"
        },
        {
            "coordinates": [
                -53.18,
                -50.8996
            ],
            "id": 256,
            "name": "Länmämpän"
        },
        {
            "coordinates": [
                -120.18,
                22.6003
            ],
            "id": 257,
            "name": "Közhzuib"
        },
        {
            "coordinates": [
                63.4732,
                -20.1304
            ],
            "id": 258,
            "name": "Kotimlishan"
        },
        {
            "coordinates": [
                87.0304,
                -20.2652
            ],
            "id": 259,
            "name": "Lemem Eme"
        },
        {
            "coordinates": [
                -35.8529,
                10.58
            ],
            "id": 260,
            "name": "Animum Inom"
        },
        {
            "coordinates": [
                100.2471,
                6.28
            ],
            "id": 261,
            "name": "Koho mu Huho"
        },
        {
            "coordinates": [
                -33.8529,
                30.78
            ],
            "id": 262,
            "name": "Längmonkong"
        },
        {
            "coordinates": [
                74.4471,
                -25.62
            ],
            "id": 263,
            "name": "Amenqan"
        },
        {
            "coordinates": [
                26.0471,
                56.18
            ],
            "id": 264,
            "name": "Ilqlolury"
        },
        {
            "coordinates": [
                -102.3801,
                19.9004
            ],
            "id": 265,
            "name": "Kúanmup"
        },
        {
            "coordinates": [
                -87.2801,
                24.4004
            ],
            "id": 266,
            "name": "Azwyózh"
        },
        {
            "coordinates": [
                78.7471,
                32.68
            ],
            "id": 267,
            "name": "Miu Leit"
        },
        {
            "coordinates": [
                112.2333,
                3.5503
            ],
            "id": 268,
            "name": "Myítmil Mak"
        },
        {
            "coordinates": [
                86.6471,
                -0.72
            ],
            "id": 269,
            "name": "Giozzom"
        },
        {
            "coordinates": [
                40.2471,
                -12.42
            ],
            "id": 270,
            "name": "Densdung"
        },
        {
            "coordinates": [
                -25.0529,
                -0.92
            ],
            "id": 271,
            "name": "Kóndjut"
        },
        {
            "coordinates": [
                -110.9264,
                -35.2973
            ],
            "id": 272,
            "name": "buž Zoltgi"
        },
        {
            "coordinates": [
                -67.1801,
                -2.6996
            ],
            "id": 273,
            "name": "Gegkieg"
        },
        {
            "coordinates": [
                -97.1312,
                37.4204
            ],
            "id": 274,
            "name": "Pix Sezh"
        },
        {
            "coordinates": [
                115.7978,
                8.687
            ],
            "id": 275,
            "name": "Hohmip"
        },
        {
            "coordinates": [
                -23.1529,
                2.88
            ],
            "id": 276,
            "name": "Dukitdun"
        },
        {
            "coordinates": [
                116.5471,
                44.78
            ],
            "id": 277,
            "name": "Solon"
        },
        {
            "coordinates": [
                -123.78,
                7.7003
            ],
            "id": 278,
            "name": "Zaranučuččus"
        },
        {
            "coordinates": [
                -39.7529,
                -11.22
            ],
            "id": 279,
            "name": "Tessoltos"
        },
        {
            "coordinates": [
                -52.08,
                19.7003
            ],
            "id": 280,
            "name": "‘ikpishak"
        },
        {
            "coordinates": [
                -121.38,
                -24.6997
            ],
            "id": 281,
            "name": "Enhin"
        },
        {
            "coordinates": [
                62.5471,
                23.28
            ],
            "id": 282,
            "name": "Kraukpaud"
        },
        {
            "coordinates": [
                -40.9529,
                -11.82
            ],
            "id": 283,
            "name": "Slak‘ukpuk"
        },
        {
            "coordinates": [
                113.3747,
                -17.8757
            ],
            "id": 284,
            "name": "Stchetchszid"
        },
        {
            "coordinates": [
                -111.7403,
                36.671
            ],
            "id": 285,
            "name": "Nuhnekmuhhok"
        },
        {
            "coordinates": [
                -63.58,
                -43.2996
            ],
            "id": 286,
            "name": "Osyolyolokos"
        },
        {
            "coordinates": [
                -91.4801,
                -56.0996
            ],
            "id": 287,
            "name": "U‘unun"
        },
        {
            "coordinates": [
                73.7471,
                52.08
            ],
            "id": 288,
            "name": "Oülkun"
        },
        {
            "coordinates": [
                38.8471,
                -10.82
            ],
            "id": 289,
            "name": "Kädron"
        },
        {
            "coordinates": [
                -123.48,
                -0.3997
            ],
            "id": 290,
            "name": "Kuellédgízh"
        },
        {
            "coordinates": [
                -104.88,
                32.0003
            ],
            "id": 291,
            "name": "Tauptiímai"
        },
        {
            "coordinates": [
                54.5471,
                11.58
            ],
            "id": 292,
            "name": "Mansbim"
        },
        {
            "coordinates": [
                117.5471,
                41.18
            ],
            "id": 293,
            "name": "Zrahpoztiz"
        },
        {
            "coordinates": [
                -52.08,
                -45.2997
            ],
            "id": 294,
            "name": "Lashsishtosh"
        },
        {
            "coordinates": [
                -96.9801,
                38.6004
            ],
            "id": 295,
            "name": "Ukusun"
        },
        {
            "coordinates": [
                -89.0801,
                -40.3996
            ],
            "id": 296,
            "name": "Soskirk"
        },
        {
            "coordinates": [
                -34.0529,
                12.48
            ],
            "id": 297,
            "name": "Plusblomnlaz"
        },
        {
            "coordinates": [
                72.1471,
                -26.62
            ],
            "id": 298,
            "name": "Mapmo"
        },
        {
            "coordinates": [
                -84.1801,
                -15.4996
            ],
            "id": 299,
            "name": "Kálmhahil"
        },
        {
            "coordinates": [
                -121.18,
                -0.5997
            ],
            "id": 300,
            "name": "Klan-tin-Lem"
        },
        {
            "coordinates": [
                50.5471,
                -32.02
            ],
            "id": 301,
            "name": "As-dum-Iggis"
        },
        {
            "coordinates": [
                37.0471,
                -6.72
            ],
            "id": 302,
            "name": "Ípuhuwuyuzh"
        },
        {
            "coordinates": [
                20.2471,
                31.08
            ],
            "id": 303,
            "name": "Baasaan"
        },
        {
            "coordinates": [
                69.7471,
                48.68
            ],
            "id": 304,
            "name": "Íhnínil"
        },
        {
            "coordinates": [
                33.4471,
                -38.12
            ],
            "id": 305,
            "name": "Kusip Saptit"
        },
        {
            "coordinates": [
                -51.5529,
                55.38
            ],
            "id": 306,
            "name": "Maptitnim"
        },
        {
            "coordinates": [
                -55.28,
                -34.1997
            ],
            "id": 307,
            "name": "Kukúmnregrom"
        },
        {
            "coordinates": [
                -117.38,
                36.7003
            ],
            "id": 308,
            "name": "Konkon"
        },
        {
            "coordinates": [
                -16.5529,
                -31.32
            ],
            "id": 309,
            "name": "Iniiimaal"
        },
        {
            "coordinates": [
                -90.48,
                -21.5997
            ],
            "id": 310,
            "name": "Onuhamomom"
        },
        {
            "coordinates": [
                65.6471,
                -16.02
            ],
            "id": 311,
            "name": "Nuddu"
        },
        {
            "coordinates": [
                -83.5383,
                27.9385
            ],
            "id": 312,
            "name": "Âmânâme"
        },
        {
            "coordinates": [
                25.6471,
                -37.32
            ],
            "id": 313,
            "name": "Nusang"
        },
        {
            "coordinates": [
                121.2417,
                -27.4546
            ],
            "id": 314,
            "name": "Dadiddom"
        },
        {
            "coordinates": [
                -56.263,
                21.3974
            ],
            "id": 315,
            "name": "Dendumtengin"
        },
        {
            "coordinates": [
                -110.9381,
                28.7596
            ],
            "id": 316,
            "name": "Slikslul"
        },
        {
            "coordinates": [
                110.647,
                -4.52
            ],
            "id": 317,
            "name": "Slenwin"
        },
        {
            "coordinates": [
                -122.88,
                16.7003
            ],
            "id": 318,
            "name": "Kikan"
        },
        {
            "coordinates": [
                22.9471,
                18.28
            ],
            "id": 319,
            "name": "Simsimpan"
        },
        {
            "coordinates": [
                81.8471,
                29.28
            ],
            "id": 320,
            "name": "Kummiam-Am"
        },
        {
            "coordinates": [
                -122.78,
                11.5003
            ],
            "id": 321,
            "name": "Urturmlort"
        },
        {
            "coordinates": [
                -102.6801,
                42.9004
            ],
            "id": 322,
            "name": "Tumnurtar"
        },
        {
            "coordinates": [
                46.8471,
                7.88
            ],
            "id": 323,
            "name": "Mup-Moam"
        },
        {
            "coordinates": [
                -18.0529,
                -21.82
            ],
            "id": 324,
            "name": "Shamungümsha"
        },
        {
            "coordinates": [
                123.2471,
                23.48
            ],
            "id": 325,
            "name": "Laieieuwaul"
        },
        {
            "coordinates": [
                15.7471,
                -37.22
            ],
            "id": 326,
            "name": "Nrennren"
        },
        {
            "coordinates": [
                68.4123,
                -25.783
            ],
            "id": 327,
            "name": "Kimki"
        },
        {
            "coordinates": [
                -54.4097,
                -40.0011
            ],
            "id": 328,
            "name": "Pan nen Nin"
        },
        {
            "coordinates": [
                99.2471,
                42.28
            ],
            "id": 329,
            "name": "Nampatutu"
        },
        {
            "coordinates": [
                61.7471,
                7.78
            ],
            "id": 330,
            "name": "Uus ko Osun"
        },
        {
            "coordinates": [
                -10.5529,
                13.78
            ],
            "id": 331,
            "name": "Sokumo"
        },
        {
            "coordinates": [
                101.6471,
                48.38
            ],
            "id": 332,
            "name": "Mamnimmlup"
        },
        {
            "coordinates": [
                -3.4529,
                22.68
            ],
            "id": 333,
            "name": "Shunsnum"
        },
        {
            "coordinates": [
                61.3471,
                35.98
            ],
            "id": 334,
            "name": "Nosekeken"
        },
        {
            "coordinates": [
                -63.5801,
                6.7004
            ],
            "id": 335,
            "name": "Xeswet"
        },
        {
            "coordinates": [
                95.8471,
                58.48
            ],
            "id": 336,
            "name": "Enenhae"
        },
        {
            "coordinates": [
                -24.1529,
                -1.02
            ],
            "id": 337,
            "name": "Saountioum"
        },
        {
            "coordinates": [
                -116.88,
                -28.5997
            ],
            "id": 338,
            "name": "Kirkipa"
        },
        {
            "coordinates": [
                97.1471,
                31.38
            ],
            "id": 339,
            "name": "Ilnpiltiln"
        },
        {
            "coordinates": [
                44.2471,
                -36.12
            ],
            "id": 340,
            "name": "Turpmumhe"
        },
        {
            "coordinates": [
                44.5471,
                13.28
            ],
            "id": 341,
            "name": "Krokkok Kezh"
        },
        {
            "coordinates": [
                99.2471,
                38.48
            ],
            "id": 342,
            "name": "Kïlilëkï"
        },
        {
            "coordinates": [
                64.8471,
                20.68
            ],
            "id": 343,
            "name": "Glakzles"
        },
        {
            "coordinates": [
                -36.7529,
                1.48
            ],
            "id": 344,
            "name": "buz Gumszäb"
        },
        {
            "coordinates": [
                -37.9527,
                51.9801
            ],
            "id": 345,
            "name": "Shmizskozpes"
        },
        {
            "coordinates": [
                -107.6801,
                16.4004
            ],
            "id": 346,
            "name": "Toksottol"
        },
        {
            "coordinates": [
                -82.9801,
                22.8004
            ],
            "id": 347,
            "name": "Azhïzetëzh"
        },
        {
            "coordinates": [
                -31.7529,
                2.18
            ],
            "id": 348,
            "name": "Lilil"
        },
        {
            "coordinates": [
                32.3471,
                -10.72
            ],
            "id": 349,
            "name": "Oltoltek"
        },
        {
            "coordinates": [
                111.1471,
                32.78
            ],
            "id": 350,
            "name": "Námkáwnom"
        },
        {
            "coordinates": [
                116.3862,
                5.3251
            ],
            "id": 351,
            "name": "Oshrarsheb"
        },
        {
            "coordinates": [
                -81.1801,
                -35.5996
            ],
            "id": 352,
            "name": "Skohnikkezh"
        },
        {
            "coordinates": [
                -6.0529,
                -0.32
            ],
            "id": 353,
            "name": "Smomsmorspey"
        },
        {
            "coordinates": [
                61.5471,
                -46.52
            ],
            "id": 354,
            "name": "Tuqtun"
        },
        {
            "coordinates": [
                -67.1801,
                -2.9996
            ],
            "id": 355,
            "name": "Bingsen Mosi"
        },
        {
            "coordinates": [
                -97.3801,
                38.7004
            ],
            "id": 356,
            "name": "Toalnuopeam"
        },
        {
            "coordinates": [
                120.1477,
                -16.1797
            ],
            "id": 357,
            "name": "Osyok"
        },
        {
            "coordinates": [
                62.4471,
                19.68
            ],
            "id": 358,
            "name": "Ulmmorh"
        },
        {
            "coordinates": [
                59.1471,
                -49.32
            ],
            "id": 359,
            "name": "Uunip"
        },
        {
            "coordinates": [
                -92.1801,
                26.1004
            ],
            "id": 360,
            "name": "leil-Wlenlum"
        },
        {
            "coordinates": [
                93.4471,
                47.18
            ],
            "id": 361,
            "name": "Sumšnumkum"
        },
        {
            "coordinates": [
                87.8514,
                -24.0399
            ],
            "id": 362,
            "name": "Míkpíkpík"
        },
        {
            "coordinates": [
                -88.9801,
                -55.6996
            ],
            "id": 363,
            "name": "Ímurm Ák"
        },
        {
            "coordinates": [
                -93.2533,
                33.6863
            ],
            "id": 364,
            "name": "Nirmu"
        },
        {
            "coordinates": [
                43.6471,
                -14.42
            ],
            "id": 365,
            "name": "Titkain"
        },
        {
            "coordinates": [
                99.3471,
                35.88
            ],
            "id": 366,
            "name": "Slonhaw"
        },
        {
            "coordinates": [
                -1.8529,
                46.68
            ],
            "id": 367,
            "name": "Kikkakpim"
        },
        {
            "coordinates": [
                118.4471,
                40.78
            ],
            "id": 368,
            "name": "Sa Ri"
        },
        {
            "coordinates": [
                111.747,
                -3.72
            ],
            "id": 369,
            "name": "Sarpurk"
        },
        {
            "coordinates": [
                -68.1801,
                -23.0996
            ],
            "id": 370,
            "name": "Chúdyog"
        },
        {
            "coordinates": [
                -73.0801,
                28.8004
            ],
            "id": 371,
            "name": "Äjäjsiwmäjäj"
        },
        {
            "coordinates": [
                84.2471,
                19.68
            ],
            "id": 372,
            "name": "Tippim"
        },
        {
            "coordinates": [
                104.9471,
                53.88
            ],
            "id": 373,
            "name": "lus Kismas"
        },
        {
            "coordinates": [
                8.9471,
                28.08
            ],
            "id": 374,
            "name": "Enuntchenun"
        },
        {
            "coordinates": [
                99.4471,
                9.68
            ],
            "id": 375,
            "name": "Tatspoot"
        },
        {
            "coordinates": [
                7.3471,
                -20.22
            ],
            "id": 376,
            "name": "Naeniuguisoi"
        },
        {
            "coordinates": [
                -106.0801,
                17.8004
            ],
            "id": 377,
            "name": "Nunnunnam"
        },
        {
            "coordinates": [
                -106.8801,
                6.3004
            ],
            "id": 378,
            "name": "Kuózáakjúo"
        },
        {
            "coordinates": [
                61.9596,
                -21.0575
            ],
            "id": 379,
            "name": "Pïssasnanmut"
        },
        {
            "coordinates": [
                51.3471,
                -20.12
            ],
            "id": 380,
            "name": "Idsuch"
        },
        {
            "coordinates": [
                -61.7307,
                14.2502
            ],
            "id": 381,
            "name": "Oaswikopowik"
        },
        {
            "coordinates": [
                101.5471,
                50.78
            ],
            "id": 382,
            "name": "Ulwwów‘"
        },
        {
            "coordinates": [
                -2.8529,
                -34.12
            ],
            "id": 383,
            "name": "Schpunschnin"
        },
        {
            "coordinates": [
                112.6058,
                -1.2885
            ],
            "id": 384,
            "name": "Oolusoolip"
        },
        {
            "coordinates": [
                64.6269,
                -20.3262
            ],
            "id": 385,
            "name": "Lazhu"
        },
        {
            "coordinates": [
                -39.2529,
                -10.92
            ],
            "id": 386,
            "name": "Emrelrel"
        },
        {
            "coordinates": [
                30.4471,
                -21.42
            ],
            "id": 387,
            "name": "Tinípi"
        },
        {
            "coordinates": [
                -82.5801,
                -35.3996
            ],
            "id": 388,
            "name": "Musit ut Men"
        },
        {
            "coordinates": [
                -89.0148,
                30.6577
            ],
            "id": 389,
            "name": "Tinnu"
        },
        {
            "coordinates": [
                113.247,
                2.38
            ],
            "id": 390,
            "name": "Neksan"
        },
        {
            "coordinates": [
                -40.7529,
                14.48
            ],
            "id": 391,
            "name": "Álál Kuwmkíw"
        },
        {
            "coordinates": [
                -116.8621,
                36.0286
            ],
            "id": 392,
            "name": "Umšanimra"
        },
        {
            "coordinates": [
                -58.6801,
                -22.3996
            ],
            "id": 393,
            "name": "Mrushvez"
        },
        {
            "coordinates": [
                107.5471,
                52.38
            ],
            "id": 394,
            "name": "Gogzhotsch"
        },
        {
            "coordinates": [
                109.6471,
                6.38
            ],
            "id": 395,
            "name": "Slilmlís-Lis"
        },
        {
            "coordinates": [
                106.5471,
                51.48
            ],
            "id": 396,
            "name": "mat-Mloppak"
        },
        {
            "coordinates": [
                22.0471,
                43.88
            ],
            "id": 397,
            "name": "Tarkeswlmwp"
        },
        {
            "coordinates": [
                58.0471,
                26.98
            ],
            "id": 398,
            "name": "Kákápé‘mep"
        },
        {
            "coordinates": [
                -61.7529,
                45.08
            ],
            "id": 399,
            "name": "Mriimmraat"
        },
        {
            "coordinates": [
                -130.38,
                -9.6997
            ],
            "id": 400,
            "name": "Alalunem"
        },
        {
            "coordinates": [
                -62.4529,
                48.68
            ],
            "id": 401,
            "name": "Nuanuemia"
        },
        {
            "coordinates": [
                -103.3801,
                40.7004
            ],
            "id": 402,
            "name": "Tusluslustos"
        },
        {
            "coordinates": [
                -112.68,
                -4.9997
            ],
            "id": 403,
            "name": "En ga Ngeme"
        },
        {
            "coordinates": [
                -87.8626,
                -27.9507
            ],
            "id": 404,
            "name": "Ookokus"
        },
        {
            "coordinates": [
                -59.78,
                -45.0996
            ],
            "id": 405,
            "name": "Myqsutgyngtâ"
        },
        {
            "coordinates": [
                -30.5529,
                30.08
            ],
            "id": 406,
            "name": "Aumaum"
        },
        {
            "coordinates": [
                -101.38,
                -7.4997
            ],
            "id": 407,
            "name": "Siningiinnin"
        },
        {
            "coordinates": [
                -74.78,
                -24.7997
            ],
            "id": 408,
            "name": "Punko"
        },
        {
            "coordinates": [
                94.0971,
                -13.1575
            ],
            "id": 409,
            "name": "bus-Rozbeych"
        },
        {
            "coordinates": [
                65.4471,
                45.48
            ],
            "id": 410,
            "name": "Hriptihpom"
        },
        {
            "coordinates": [
                -14.0529,
                -22.62
            ],
            "id": 411,
            "name": "Pootzizdaas"
        },
        {
            "coordinates": [
                93.6375,
                -16.5478
            ],
            "id": 412,
            "name": "Touttou"
        },
        {
            "coordinates": [
                94.8471,
                52.98
            ],
            "id": 413,
            "name": "Wiehzoahzoah"
        },
        {
            "coordinates": [
                -4.6529,
                18.18
            ],
            "id": 414,
            "name": "Zhonkronchom"
        },
        {
            "coordinates": [
                43.5471,
                -33.72
            ],
            "id": 415,
            "name": "Kunsladslib"
        },
        {
            "coordinates": [
                89.748,
                -24.1621
            ],
            "id": 416,
            "name": "Muúnoúkeu"
        },
        {
            "coordinates": [
                96.0471,
                -12.42
            ],
            "id": 417,
            "name": "Tusunu Nusha"
        },
        {
            "coordinates": [
                -109.68,
                -3.6997
            ],
            "id": 418,
            "name": "Hyusmyespwux"
        },
        {
            "coordinates": [
                -54.88,
                -32.7997
            ],
            "id": 419,
            "name": "Dedgarop"
        },
        {
            "coordinates": [
                -68.4477,
                41.7842
            ],
            "id": 420,
            "name": "Enuhuh"
        },
        {
            "coordinates": [
                47.4471,
                3.08
            ],
            "id": 421,
            "name": "Kulkolt"
        },
        {
            "coordinates": [
                -5.2529,
                -21.22
            ],
            "id": 422,
            "name": "Nitagu"
        },
        {
            "coordinates": [
                -97.2801,
                46.0004
            ],
            "id": 423,
            "name": "Imupon"
        },
        {
            "coordinates": [
                3.9471,
                14.98
            ],
            "id": 424,
            "name": "Stettetkot"
        },
        {
            "coordinates": [
                116.9082,
                5.1385
            ],
            "id": 425,
            "name": "Goukgoep"
        },
        {
            "coordinates": [
                -65.8801,
                2.0004
            ],
            "id": 426,
            "name": "Tetmo"
        },
        {
            "coordinates": [
                9.9471,
                27.88
            ],
            "id": 427,
            "name": "Akhekxúb"
        },
        {
            "coordinates": [
                -104.8801,
                41.6004
            ],
            "id": 428,
            "name": "Kozhdus"
        },
        {
            "coordinates": [
                -61.48,
                33.5003
            ],
            "id": 429,
            "name": "Pezhsazh"
        },
        {
            "coordinates": [
                -119.58,
                14.3003
            ],
            "id": 430,
            "name": "Tudosakunuda"
        },
        {
            "coordinates": [
                65.8471,
                38.88
            ],
            "id": 431,
            "name": "Usmurg"
        },
        {
            "coordinates": [
                -110.2876,
                29.2411
            ],
            "id": 432,
            "name": "Hut Nihnat"
        },
        {
            "coordinates": [
                76.8471,
                5.38
            ],
            "id": 433,
            "name": "Kakbos"
        },
        {
            "coordinates": [
                -109.9428,
                -34.9929
            ],
            "id": 434,
            "name": "Itikün"
        },
        {
            "coordinates": [
                121.198,
                -26.6748
            ],
            "id": 435,
            "name": "Mult-old-It"
        },
        {
            "coordinates": [
                -89.68,
                -31.8997
            ],
            "id": 436,
            "name": "me-Ku"
        },
        {
            "coordinates": [
                -8.7529,
                -40.32
            ],
            "id": 437,
            "name": "Suloton"
        },
        {
            "coordinates": [
                -57.498,
                -46.9904
            ],
            "id": 438,
            "name": "Poúkkoúm"
        },
        {
            "coordinates": [
                -53.0488,
                -54.4699
            ],
            "id": 439,
            "name": "Melese"
        },
        {
            "coordinates": [
                -35.0529,
                16.48
            ],
            "id": 440,
            "name": "Mokkán"
        },
        {
            "coordinates": [
                -79.28,
                -50.6996
            ],
            "id": 441,
            "name": "Shabe"
        },
        {
            "coordinates": [
                -100.1801,
                4.1004
            ],
            "id": 442,
            "name": "Onkok"
        },
        {
            "coordinates": [
                -8.3529,
                32.98
            ],
            "id": 443,
            "name": "Skesxmun"
        },
        {
            "coordinates": [
                16.9471,
                17.28
            ],
            "id": 444,
            "name": "Xhilmop"
        },
        {
            "coordinates": [
                -89.88,
                -22.0997
            ],
            "id": 445,
            "name": "Sunte"
        },
        {
            "coordinates": [
                -61.68,
                -48.2996
            ],
            "id": 446,
            "name": "Mâlsyôn"
        },
        {
            "coordinates": [
                97.8471,
                33.88
            ],
            "id": 447,
            "name": "u-Onwunom"
        },
        {
            "coordinates": [
                -32.2529,
                -8.82
            ],
            "id": 448,
            "name": "Toknir"
        },
        {
            "coordinates": [
                -79.4801,
                44.5004
            ],
            "id": 449,
            "name": "el-Sort"
        },
        {
            "coordinates": [
                104.0471,
                53.58
            ],
            "id": 450,
            "name": "Himin"
        },
        {
            "coordinates": [
                53.1471,
                11.78
            ],
            "id": 451,
            "name": "ám Búb"
        },
        {
            "coordinates": [
                121.4471,
                12.68
            ],
            "id": 452,
            "name": "Tas-Nískík"
        },
        {
            "coordinates": [
                -124.08,
                9.5003
            ],
            "id": 453,
            "name": "Wawspap"
        },
        {
            "coordinates": [
                -93.4801,
                -39.3996
            ],
            "id": 454,
            "name": "Luomteop"
        },
        {
            "coordinates": [
                16.3471,
                55.68
            ],
            "id": 455,
            "name": "Ululek"
        },
        {
            "coordinates": [
                -80.18,
                -50.5996
            ],
            "id": 456,
            "name": "Noutuo"
        },
        {
            "coordinates": [
                74.2471,
                -13.62
            ],
            "id": 457,
            "name": "Ruen Guešeo"
        },
        {
            "coordinates": [
                24.6471,
                41.18
            ],
            "id": 458,
            "name": "Elnurme‘"
        },
        {
            "coordinates": [
                72.0471,
                48.48
            ],
            "id": 459,
            "name": "Saiptiknius"
        },
        {
            "coordinates": [
                -64.2801,
                4.6004
            ],
            "id": 460,
            "name": "pel Minkek"
        },
        {
            "coordinates": [
                115.6471,
                44.88
            ],
            "id": 461,
            "name": "Salilu"
        },
        {
            "coordinates": [
                -2.9529,
                40.88
            ],
            "id": 462,
            "name": "Simsíssuíl"
        },
        {
            "coordinates": [
                93.8471,
                46.08
            ],
            "id": 463,
            "name": "Skolskolmo"
        },
        {
            "coordinates": [
                121.8471,
                26.08
            ],
            "id": 464,
            "name": "Motámo"
        },
        {
            "coordinates": [
                54.3471,
                -39.02
            ],
            "id": 465,
            "name": "Taggigbir"
        },
        {
            "coordinates": [
                -1.5529,
                9.88
            ],
            "id": 466,
            "name": "Nuknukslák"
        },
        {
            "coordinates": [
                -129.58,
                -4.2997
            ],
            "id": 467,
            "name": "Pispim"
        },
        {
            "coordinates": [
                -70.3801,
                -22.9996
            ],
            "id": 468,
            "name": "‘uwim‘angnaa"
        },
        {
            "coordinates": [
                1.9471,
                -13.22
            ],
            "id": 469,
            "name": "Smépston Sna"
        },
        {
            "coordinates": [
                -96.5801,
                27.0004
            ],
            "id": 470,
            "name": "pul-Serupur"
        },
        {
            "coordinates": [
                113.347,
                0.28
            ],
            "id": 471,
            "name": "Lulmis"
        },
        {
            "coordinates": [
                -66.7801,
                4.9004
            ],
            "id": 472,
            "name": "Waswashauk"
        },
        {
            "coordinates": [
                113.7133,
                0.5246
            ],
            "id": 473,
            "name": "Noku Likuku"
        },
        {
            "coordinates": [
                118.0471,
                19.18
            ],
            "id": 474,
            "name": "Muáklíknaíp"
        },
        {
            "coordinates": [
                -40.8529,
                -7.82
            ],
            "id": 475,
            "name": "Walwhulnmow"
        },
        {
            "coordinates": [
                94.3471,
                12.78
            ],
            "id": 476,
            "name": "Moshshwuzh"
        },
        {
            "coordinates": [
                -41.3529,
                -10.82
            ],
            "id": 477,
            "name": "Panguqgi"
        },
        {
            "coordinates": [
                -87.9801,
                -53.0996
            ],
            "id": 478,
            "name": "Säpme Flefmä"
        },
        {
            "coordinates": [
                -63.2801,
                -18.8996
            ],
            "id": 479,
            "name": "Okitehumok"
        },
        {
            "coordinates": [
                115.5471,
                27.78
            ],
            "id": 480,
            "name": "si Mimimu"
        },
        {
            "coordinates": [
                -79.8801,
                51.5004
            ],
            "id": 481,
            "name": "Tukumo"
        },
        {
            "coordinates": [
                -14.3529,
                -26.02
            ],
            "id": 482,
            "name": "Smomsnon"
        },
        {
            "coordinates": [
                -93.2801,
                27.8004
            ],
            "id": 483,
            "name": "Qemwekqemsan"
        },
        {
            "coordinates": [
                86.9794,
                -13.3027
            ],
            "id": 484,
            "name": "Kukflupup"
        },
        {
            "coordinates": [
                -115.28,
                13.4003
            ],
            "id": 485,
            "name": "Ulqalalqal"
        },
        {
            "coordinates": [
                -21.9529,
                -0.22
            ],
            "id": 486,
            "name": "Wepwulwep"
        },
        {
            "coordinates": [
                5.1471,
                -14.42
            ],
            "id": 487,
            "name": "Arum-Unarev"
        },
        {
            "coordinates": [
                101.8471,
                50.78
            ],
            "id": 488,
            "name": "Nussmussmus"
        },
        {
            "coordinates": [
                30.0471,
                17.48
            ],
            "id": 489,
            "name": "Eqerum"
        },
        {
            "coordinates": [
                -22.0529,
                29.88
            ],
            "id": 490,
            "name": "Mayloym"
        },
        {
            "coordinates": [
                80.6471,
                18.58
            ],
            "id": 491,
            "name": "Smetteis"
        },
        {
            "coordinates": [
                -13.3529,
                46.68
            ],
            "id": 492,
            "name": "Numeltulmi"
        },
        {
            "coordinates": [
                -111.08,
                34.9003
            ],
            "id": 493,
            "name": "Songgen"
        },
        {
            "coordinates": [
                -54.08,
                -54.2996
            ],
            "id": 494,
            "name": "Limon Utipit"
        },
        {
            "coordinates": [
                92.5471,
                1.18
            ],
            "id": 495,
            "name": "Bumzanggun"
        },
        {
            "coordinates": [
                -4.9529,
                18.28
            ],
            "id": 496,
            "name": "Wawddojb"
        },
        {
            "coordinates": [
                95.4471,
                -12.22
            ],
            "id": 497,
            "name": "Kewmiw"
        },
        {
            "coordinates": [
                -64.48,
                -60.0996
            ],
            "id": 498,
            "name": "Kunomsen"
        },
        {
            "coordinates": [
                -115.28,
                -30.7997
            ],
            "id": 499,
            "name": "Tumpulmuttil"
        },
        {
            "coordinates": [
                113.1506,
                -22.5227
            ],
            "id": 500,
            "name": "Kopkop"
        },
        {
            "coordinates": [
                47.5471,
                -40.72
            ],
            "id": 501,
            "name": "Okekusiksus"
        },
        {
            "coordinates": [
                -61.48,
                33.1003
            ],
            "id": 502,
            "name": "Nun Pun"
        },
        {
            "coordinates": [
                51.8471,
                -48.22
            ],
            "id": 503,
            "name": "Dunsdunsqim"
        },
        {
            "coordinates": [
                116.5471,
                21.48
            ],
            "id": 504,
            "name": "Mizós"
        },
        {
            "coordinates": [
                -63.2529,
                44.48
            ],
            "id": 505,
            "name": "Lolslil"
        },
        {
            "coordinates": [
                -15.2529,
                24.48
            ],
            "id": 506,
            "name": "ín Omákíd"
        },
        {
            "coordinates": [
                -19.0529,
                -35.52
            ],
            "id": 507,
            "name": "Talosu"
        },
        {
            "coordinates": [
                -88.9801,
                -45.6996
            ],
            "id": 508,
            "name": "Chozhdukzhor"
        },
        {
            "coordinates": [
                -4.9529,
                1.58
            ],
            "id": 509,
            "name": "Sdenwem"
        },
        {
            "coordinates": [
                98.2471,
                52.28
            ],
            "id": 510,
            "name": "Emabekoz"
        },
        {
            "coordinates": [
                -102.4524,
                -35.9101
            ],
            "id": 511,
            "name": "Hakuk"
        },
        {
            "coordinates": [
                -67.1801,
                26.3004
            ],
            "id": 512,
            "name": "ghe Lekhulo"
        },
        {
            "coordinates": [
                104.4471,
                -9.02
            ],
            "id": 513,
            "name": "Loskom"
        },
        {
            "coordinates": [
                -39.7529,
                6.98
            ],
            "id": 514,
            "name": "Pêkshluk"
        },
        {
            "coordinates": [
                -5.1529,
                0.48
            ],
            "id": 515,
            "name": "Nuzšašduušdu"
        },
        {
            "coordinates": [
                74.4471,
                -13.72
            ],
            "id": 516,
            "name": "Aalpaamtaa"
        },
        {
            "coordinates": [
                120.9471,
                13.48
            ],
            "id": 517,
            "name": "Ruvtogugur"
        },
        {
            "coordinates": [
                -69.1801,
                -23.4996
            ],
            "id": 518,
            "name": "Mynâklys"
        },
        {
            "coordinates": [
                -12.6529,
                -16.32
            ],
            "id": 519,
            "name": "Exuxexip"
        },
        {
            "coordinates": [
                -34.4529,
                16.38
            ],
            "id": 520,
            "name": "Pullesponlu"
        },
        {
            "coordinates": [
                34.4471,
                -10.62
            ],
            "id": 521,
            "name": "Maktattuit"
        },
        {
            "coordinates": [
                11.2471,
                -12.82
            ],
            "id": 522,
            "name": "Emulala"
        },
        {
            "coordinates": [
                25.9471,
                59.48
            ],
            "id": 523,
            "name": "Nokün"
        },
        {
            "coordinates": [
                66.8471,
                43.88
            ],
            "id": 524,
            "name": "Oopen"
        },
        {
            "coordinates": [
                84.7471,
                -17.32
            ],
            "id": 525,
            "name": "Pus-wip-Sod"
        },
        {
            "coordinates": [
                110.9693,
                -22.2732
            ],
            "id": 526,
            "name": "Minulnul"
        },
        {
            "coordinates": [
                -8.6529,
                33.68
            ],
            "id": 527,
            "name": "Âpwâh"
        },
        {
            "coordinates": [
                -76.2801,
                44.7004
            ],
            "id": 528,
            "name": "Nilalni Pe"
        },
        {
            "coordinates": [
                75.7471,
                8.58
            ],
            "id": 529,
            "name": "Tomakos"
        },
        {
            "coordinates": [
                48.0471,
                -18.02
            ],
            "id": 530,
            "name": "Shzishzibuwi"
        },
        {
            "coordinates": [
                15.5471,
                53.48
            ],
            "id": 531,
            "name": "Igususimagus"
        },
        {
            "coordinates": [
                -98.4801,
                49.4004
            ],
            "id": 532,
            "name": "Pulsilkpelm"
        },
        {
            "coordinates": [
                -5.8529,
                17.68
            ],
            "id": 533,
            "name": "Surolk"
        },
        {
            "coordinates": [
                -72.7801,
                28.8004
            ],
            "id": 534,
            "name": "Bakhi Tula"
        },
        {
            "coordinates": [
                56.6471,
                -22.82
            ],
            "id": 535,
            "name": "Spipsus"
        },
        {
            "coordinates": [
                -123.88,
                7.3003
            ],
            "id": 536,
            "name": "Lwklws"
        },
        {
            "coordinates": [
                -109.0844,
                33.571
            ],
            "id": 537,
            "name": "Plimsen"
        },
        {
            "coordinates": [
                -107.6524,
                45.1418
            ],
            "id": 538,
            "name": "Lénnunne"
        },
        {
            "coordinates": [
                -102.68,
                -35.8997
            ],
            "id": 539,
            "name": "Irmažimilž"
        },
        {
            "coordinates": [
                122.4872,
                12.6446
            ],
            "id": 540,
            "name": "Zoultuolloun"
        },
        {
            "coordinates": [
                83.6471,
                17.18
            ],
            "id": 541,
            "name": "Luameee"
        },
        {
            "coordinates": [
                -86.7801,
                -35.7996
            ],
            "id": 542,
            "name": "Usuzh"
        },
        {
            "coordinates": [
                -69.88,
                -57.0996
            ],
            "id": 543,
            "name": "Skunsnin"
        },
        {
            "coordinates": [
                35.6471,
                -44.02
            ],
            "id": 544,
            "name": "Kheghe"
        },
        {
            "coordinates": [
                97.8737,
                -13.8787
            ],
            "id": 545,
            "name": "Loloswo"
        },
        {
            "coordinates": [
                -64.2801,
                13.1004
            ],
            "id": 546,
            "name": "Sischen"
        },
        {
            "coordinates": [
                -27.5527,
                50.5801
            ],
            "id": 547,
            "name": "Unlupin"
        },
        {
            "coordinates": [
                -62.08,
                30.3003
            ],
            "id": 548,
            "name": "Yoyá vá Yo"
        },
        {
            "coordinates": [
                -12.4529,
                23.68
            ],
            "id": 549,
            "name": "Ozuzuz"
        },
        {
            "coordinates": [
                7.1471,
                -15.82
            ],
            "id": 550,
            "name": "Mamnau Ha"
        },
        {
            "coordinates": [
                -19.1529,
                -24.52
            ],
            "id": 551,
            "name": "Ujidik"
        },
        {
            "coordinates": [
                -93.9801,
                -39.4996
            ],
            "id": 552,
            "name": "Alanusus"
        },
        {
            "coordinates": [
                82.7471,
                18.68
            ],
            "id": 553,
            "name": "Zhozizia"
        },
        {
            "coordinates": [
                -73.3801,
                -26.9996
            ],
            "id": 554,
            "name": "Kanlemlen"
        },
        {
            "coordinates": [
                -75.6801,
                -32.2996
            ],
            "id": 555,
            "name": "Neper"
        },
        {
            "coordinates": [
                65.0471,
                31.98
            ],
            "id": 556,
            "name": "Muzpozpuzh"
        },
        {
            "coordinates": [
                -2.1529,
                11.58
            ],
            "id": 557,
            "name": "Nenmâsnop"
        },
        {
            "coordinates": [
                103.7471,
                -9.82
            ],
            "id": 558,
            "name": "nus Dulak"
        },
        {
            "coordinates": [
                50.5471,
                9.38
            ],
            "id": 559,
            "name": "Mumsmu"
        },
        {
            "coordinates": [
                -70.8246,
                41.6281
            ],
            "id": 560,
            "name": "Tinkeniimtin"
        },
        {
            "coordinates": [
                3.9471,
                9.98
            ],
            "id": 561,
            "name": "Lalplin"
        },
        {
            "coordinates": [
                49.8471,
                12.38
            ],
            "id": 562,
            "name": "Leotnous"
        },
        {
            "coordinates": [
                113.6471,
                13.58
            ],
            "id": 563,
            "name": "Linlánlim"
        },
        {
            "coordinates": [
                -71.9801,
                37.0004
            ],
            "id": 564,
            "name": "Rizhubred"
        },
        {
            "coordinates": [
                36.8471,
                12.48
            ],
            "id": 565,
            "name": "Ginnim Dan"
        },
        {
            "coordinates": [
                66.7471,
                20.88
            ],
            "id": 566,
            "name": "Ukkuktulk"
        },
        {
            "coordinates": [
                114.6471,
                40.88
            ],
            "id": 567,
            "name": "ob-Orosuuz"
        },
        {
            "coordinates": [
                50.8471,
                -19.52
            ],
            "id": 568,
            "name": "Ahtihim Iiha"
        },
        {
            "coordinates": [
                57.8471,
                5.68
            ],
            "id": 569,
            "name": "Piekiek"
        },
        {
            "coordinates": [
                88.1495,
                -23.6184
            ],
            "id": 570,
            "name": "Niname Mahe"
        },
        {
            "coordinates": [
                -120.28,
                32.3003
            ],
            "id": 571,
            "name": "men Kenmum"
        },
        {
            "coordinates": [
                -57.08,
                24.2003
            ],
            "id": 572,
            "name": "Non Neng"
        },
        {
            "coordinates": [
                -13.3529,
                20.68
            ],
            "id": 573,
            "name": "Nukhunub"
        },
        {
            "coordinates": [
                96.3471,
                48.28
            ],
            "id": 574,
            "name": "Usnum"
        },
        {
            "coordinates": [
                -75.1801,
                -28.5996
            ],
            "id": 575,
            "name": "Tap Nah"
        },
        {
            "coordinates": [
                -45.7529,
                10.88
            ],
            "id": 576,
            "name": "Pipikipu"
        },
        {
            "coordinates": [
                -94.4793,
                34.8164
            ],
            "id": 577,
            "name": "Moupkiapiw"
        },
        {
            "coordinates": [
                113.5471,
                30.08
            ],
            "id": 578,
            "name": "Nusmus"
        },
        {
            "coordinates": [
                7.6471,
                14.38
            ],
            "id": 579,
            "name": "Wawpuch"
        },
        {
            "coordinates": [
                17.9471,
                -4.12
            ],
            "id": 580,
            "name": "Liâmoâs"
        },
        {
            "coordinates": [
                82.1471,
                -10.32
            ],
            "id": 581,
            "name": "Ryungwut"
        },
        {
            "coordinates": [
                -98.2801,
                20.4004
            ],
            "id": 582,
            "name": "Rikkik"
        },
        {
            "coordinates": [
                25.9471,
                60.08
            ],
            "id": 583,
            "name": "Dulbulsgal"
        },
        {
            "coordinates": [
                -67.0801,
                -2.2996
            ],
            "id": 584,
            "name": "Nikeh"
        },
        {
            "coordinates": [
                60.1471,
                -45.82
            ],
            "id": 585,
            "name": "Nokkikapi"
        },
        {
            "coordinates": [
                -99.4607,
                39.1164
            ],
            "id": 586,
            "name": "Su ij Chu"
        },
        {
            "coordinates": [
                21.1471,
                -30.12
            ],
            "id": 587,
            "name": "Nil kiv Kit"
        },
        {
            "coordinates": [
                59.5471,
                8.68
            ],
            "id": 588,
            "name": "Ghalqid"
        },
        {
            "coordinates": [
                -74.0801,
                33.5004
            ],
            "id": 589,
            "name": "Meketypa"
        },
        {
            "coordinates": [
                59.3471,
                24.18
            ],
            "id": 590,
            "name": "Schas Ol"
        },
        {
            "coordinates": [
                14.3471,
                22.08
            ],
            "id": 591,
            "name": "Sït Myut"
        },
        {
            "coordinates": [
                122.6491,
                -16.4331
            ],
            "id": 592,
            "name": "Liluntumunsi"
        },
        {
            "coordinates": [
                78.1471,
                42.88
            ],
            "id": 593,
            "name": "Oponosit"
        },
        {
            "coordinates": [
                121.5859,
                -28.333
            ],
            "id": 594,
            "name": "Lwpuplwp"
        },
        {
            "coordinates": [
                -75.4801,
                -15.4996
            ],
            "id": 595,
            "name": "Loem Toi"
        },